water_source_type,inspecting_agency,inspection_date,region,district,source_name,nearest_settlement_name,establishing_agency,date_source_established,latitude,longitude,permanent,functioning,reason_for_non_functioning,management_type,wsc_date_of_establishment,cost_of_water_for_humans,name_of_operator,operator_contact_number,last_intervention_description,last_intervention_date
Berkad,SWALIM Archives,2005-02-22,Hiraan,Belet Weyne,,,,,4.8271,45.5504,,Yes,,,,,,,,
Dam,SWALIM_WSIS,2008-06-21,Togdheer,Burco,Balli Dhiig 1,Bali Dhiig,,,8.3738,45.9116,,,,,,,,,,
Dam,SWALIM_WSIS,2008-06-21,Togdheer,Burco,Warta Nasiye,Nasiye,,,8.7429,45.6311,,No,,,,,,,,
Dug Well,BRCiS,2017-06-01,Mudug,Hobyo,Toro,Toro,,,6.021,47.7931,,,,,,,,,,
Borehole,SWALIM_WSIS,2008-06-03,Bari,Qardho,Yako,Yako,,,9.2204,49.1246,No,No,,Private,,,,,,
Dug Well,SWALIM_WSIS,2009-09-30,Gedo,Doolow,Lugadiima,Dogob,,,3.8,42.2,Yes,Yes,,,,,,,,
Dug Well,SWALIM_WSIS,2008-07-14,Bari,Bandar Beyla,Bixin,Dur Dura,,,9.0877,50.4305,Yes,Yes,,,,,,,,
Spring,SWALIM_WSIS,2008-07-19,Nugaal,Eyl,Gabac,Ladege,,,8.1565,50.0373,Yes,Yes,,,,,,,,
Dam,SWALIM_WSIS,2009-10-30,Gedo,Baardheere,Kurtumaley,Kurtumaley,,,2.395,42.204,Yes,Yes,,,,,,,,
Spring,SWALIM_WSIS,2008-06-18,Bari,Iskushuban,Xeela,,,,11.3713,51.0397,,,,,,,,,,
Spring,SWALIM_WSIS,2008-06-19,Togdheer,Sheikh,Iskudarka Spring,Biyooley,,,10.1108,45.2775,,,,,,,,,,
Dug Well,SWALIM_WSIS,2009-08-13,Galgaduud,Ceel Dheer,Bilaal,,,,3.9311,47.4276,,,,,,,,,,
Dug Well,SWALIM_WSIS,2008-07-22,Mudug,Galdogob,Nimco Farm,Hermo,,,7.192,47.5281,Yes,Yes,,,,,,,,
Borehole,SWALIM_WSIS,2008-07-27,Mudug,Galkacyo,Yamayska,,,,6.7962,47.4238,No,No,,,,,,,,
Dam,SWALIM_WSIS,2008-06-23,Woqooyi Galbeed,Hargeisa,Balligubadle 1,,,,9.0128,44.003,,,,,,,,,,
Dug Well,SWALIM_WSIS,2009-08-18,Galgaduud,Ceel Dheer,Ceel Xaji Maxud,,,,3.8411,47.182,,Yes,,,,,,,,
Dam,COOPI,2012-12-18,Galgaduud,Dhusa Marreb,Toon,Labiley,,,5.1185,45.8261,Yes,Yes,,,,,,,,
Dug Well,SWALIM_WSIS,2009-07-29,Mudug,Hobyo,Laascagey,Dhidhin,,,6.0122,48.1183,,Yes,,,,,,,,
Dug Well,SWALIM_WSIS,2008-05-27,Awdal,Borama,Camuud 2,Boorame,,,9.9484,43.2329,Yes,Yes,,,,,,,,
Dug Well,SWALIM_WSIS,2008-05-27,Sool,Xudun,Siiga dheer,Xerta xangery,,,9.1603,47.6192,Yes,Yes,,,,,,,,
Spring,SWALIM_WSIS,2008-05-31,Bari,Bossaso,Mirqanle 1,Laag,,,11.0667,49.1306,Yes,Yes,,,,,,,,
Spring,SWALIM_WSIS,2008-05-16,Awdal,Zeylac,Khadar Iyoiiyaas,Jidhi Town,,,10.573,42.9941,Yes,Yes,,,,,,,,
Berkad,BRCiS,2017-06-01,Nugaal,Burtinle,Hasbahale,Hasbahale,,,7.9638,49.1543,,,,,,,,,,
Berkad,GSA/SWALIM,2016-02-28,Galgaduud,Ceel Bur,Celbur BE,celbur,,,4.6821,46.6185,,,,,,,,,,
Dug Well,SWALIM_WSIS,2009-08-12,Galgaduud,Ceel Dheer,Ceel Qororoe,Ceel Dhooble,,,3.9947,47.4607,,,,,,,,,,
Dam,SWALIM_WSIS,2008-06-23,Woqooyi Galbeed,Hargeisa,Kuul,Magaalo Kuul,,,9.3855,43.6586,No,Yes,,,,,,,,
Spring,SWALIM_WSIS,2008-05-27,Bari,Bossaso,Conqore 1,Bosaso,,,11.2095,49.2063,Yes,Yes,,,,,,,,
Berkad,BRCiS,2017-06-01,Hiraan,Belet Weyne,Bacda hose,Bacda hose,,,5.1187,45.3887,,,,,,,,,,
Dam,SWALIM_WSIS,2008-06-18,Awdal,Borama,Cali Cumer,Dila Town,,,9.7737,43.3444,No,Yes,,,,,,,,
Spring,SWALIM_WSIS,2008-05-13,Togdheer,Sheikh,Bixin Dule 2,Geel Lokoi,,,10.1653,45.1052,Yes,Yes,,,,,,,,
Berkad,BRCiS,2017-06-01,Sanaag,Ceel Afweyn,Fadhigaab,Fadhigaab,,,9.6674,47.0137,,,,,,,,,,
Berkad,SWALIM_WSIS,2008-06-20,Togdheer,Burco,Wisil Berkad SRC,Wisil Village,,,9.5466,45.4005,,,,,,,,,,
Borehole,FGS Ministry of Energy and Water Resources,,Bay,Baydhaba,Aliyow Mareyle,Bulo Barako,,,2.9349,43.3323,,Yes,,Community,,,,,,
Dug Well,SWALIM_WSIS,2009-08-06,Galgaduud,Ceel Dheer,Jeex Dheer,Ceel Dheer,,,3.8106,47.2501,,,,,,,,,,
Dug Well,SWALIM_WSIS,2009-08-26,Bay,Baydhaba,Ceel Busley,Bardale,,,3.1169,43.6585,Yes,Yes,,,,,,,,
Spring,SWALIM_WSIS,2008-05-17,Togdheer,Sheikh,Dhadhen Spring,,,,9.9439,45.1906,,,,,,,,,,
Dug Well,BRCiS,2017-06-01,Bakool,Xudur,Buulow/ Hudur,Buulow/ Hudur,,,4.128,43.8885,,,,,,,,,,
Dam,SWALIM_WSIS,2009-08-12,Bay,Baydhaba,Haween,Gumurow,,,3.2514,43.5414,,,,,,,,,,
Dug Well,SWALIM_WSIS,2008-05-17,Sool,Caynabo,Badweyne 2,,,,8.9963,46.6549,Yes,Yes,,,,,,,,
Borehole,SWALIM Archives,1983-03-04,Woqooyi Galbeed,Berbera,WHN (test well),,,,10.1819,44.4361,,,,,,,,,,
Spring,SWALIM_WSIS,2008-07-19,Nugaal,Garoowe,Lasodawoco,Garowe,,,8.2641,48.3499,Yes,Yes,,,,,,,,
Berkad,GSA/SWALIM,2016-02-28,Galgaduud,Ceel Dheer,Bargaan BE,Bargaan,,,4.3661,47.0514,,,,,,,,,,
Dam,SWALIM_WSIS,2009-08-22,Bay,Bur Hakaba,Golole,Golole,,,2.8728,44.0181,Yes,Yes,,,,,,,,
Dug Well,BRCiS,2017-06-01,Mudug,Hobyo,Qaydaro,Qaydaro,,,5.7962,47.4883,,,,,,,,,,
Dug Well,SWALIM_WSIS,2009-07-22,Mudug,Hobyo,Dhurre 1,Jalable,,,6.368,47.9509,,Yes,,,,,,,,
Dug Well,SWALIM_WSIS,2008-06-03,Sool,Taleex,Kubo 4,,,,9.5022,49.0603,,,,,,,,,,
Dam,SWALIM_WSIS,2009-10-15,Bay,Diinsoor,Sheikh Idiris,Balannaal,,,2.5208,42.681,,,,,,,,,,
Dug Well,SWALIM_WSIS,2008-05-30,Awdal,Baki,Ruqi Dug Well,Ruqi  Town,,,9.9737,43.4266,,Abandoned,,,,,,,,
Spring,SWALIM_WSIS,2008-07-12,Bari,Bandar Beyla,Kulule,Kulule,,,9.1574,50.6463,Yes,Yes,,,,,,,,
Dug Well,SWALIM_WSIS,2008-06-14,Woqooyi Galbeed,Berbera,Lascudle Dug Well 2,Lascudle,,,10.1669,45.989,Yes,Yes,,,,,,,,
Dug Well,SWALIM_WSIS,2008-05-29,Bari,Bossaso,Ahmed,,,,11.282,49.1745,Yes,Yes,,,,,,,,
Spring,SWALIM_WSIS,2008-06-17,Bari,Iskushuban,Yaguudaan,Xeelo,,,11.4457,51.0478,Yes,Yes,,,,,,,,
Dug Well,SWALIM_WSIS,2008-06-10,Bari,Caluula,Afkaleheye,,,,11.9042,50.5933,Yes,Yes,,,,,,,,
Berkad,SWALIM Archives,2005-02-22,Hiraan,Belet Weyne,,,,,5.0389,45.2868,,Yes,,,,,,,,
Dug Well,SWALIM_WSIS,2009-10-17,Gedo,Garbahaarey,Washaaqbar,B/DHUBO,,,3.204,42.3945,,Yes,,,,,,,,
Dug Well,SWALIM_WSIS,2008-05-28,Bari,Bossaso,Cali Saanle,,,,11.282,49.2047,Yes,Yes,,,,,,,,
Dam,SWALIM_WSIS,2008-06-15,Woqooyi Galbeed,Gebiley,Community,Idhanka Deerayahan,,,9.5819,43.4849,No,Yes,,,,,,,,
Dug Well,SWALIM Archives,2004-07-01,Togdheer,Owdweyne,Ceelsame 1,,,,9.3334,45.1624,,,,,,,,,,
Dug Well,SWALIM Archives,2004-07-01,Togdheer,Owdweyne,Ceelsame 3,,,,9.3339,45.161,,,,,,,,,,
Borehole,SWALIM_WSIS,2009-07-25,Bay,Baydhaba,Hawal Barbar,,,,2.7415,43.1645,,No,,,,,,,,
Dam,SWALIM_WSIS,2008-06-29,Woqooyi Galbeed,Hargeisa,Qool Bulaale,Lubaax Qawdhama,,,9.8693,44.3979,,,,,,,,,,
Dam,SWALIM_WSIS,2009-09-29,Middle Juba,Saakow,Canda Dahe,,,,1.864,42.192,,No,,,,,,,,
Dam,SWALIM_WSIS,2008-06-14,Sool,Caynabo,God Dhuub,Oog,,,8.9421,46.7507,Yes,Yes,,,,,,,,
Borehole,SCF,2005-02-22,Hiraan,Belet Weyne,Sabad-Caano,,,,4.8012,45.2437,,Yes,,,,,,,,
Borehole,SCF,2005-02-22,Hiraan,Belet Weyne,Belet Salama,,,,4.8908,45.0393,,No,,,,,,,,
Dam,SWALIM_WSIS,2008-07-06,Woqooyi Galbeed,Gebiley,Xaaji Muuse dam,Aley Badey,,,9.3876,43.512,No,Yes,,,,,,,,
Dug Well,SWALIM_WSIS,2008-05-29,Bari,Bossaso,Said Mohamed,,,,11.2853,49.1785,Yes,Yes,,,,,,,,
Dug Well,SWALIM_WSIS,2009-08-10,Bay,Diinsoor,Baraagle 2,Towfiiq,,,2.354,42.7,Yes,Yes,,,,,,,,
Dug Well,SWALIM_WSIS,2008-09-06,Sanaag,Ceerigaabo,Ceeldheere,Biyo gaduud,,,10.4191,47.6503,,,,,,,,,,
Berkad,SWALIM Archives,2005-02-22,Hiraan,Belet Weyne,,,,,4.7245,44.7016,,No,,,,,,,,
Spring,SWALIM_WSIS,2008-05-28,Bari,Bossaso,Hays 3,Qaw,,,11.1844,48.9521,Yes,Yes,,,,,,,,
Dug Well,BRCiS,2017-06-01,Lower Shabelle,Afgooye,Mordile,Mordile,,,2.1504,45.1167,,,,,,,,,,
Dug Well,SWALIM_WSIS,2008-05-28,Bari,Bossaso,Kontorol,,,,11.212,49.1879,,,,,,,,,,
Dam,SWALIM_WSIS,2008-06-24,Woqooyi Galbeed,Hargeisa,Ballig Adan Abokor,Adan abokor,,,9.0412,44.1031,Yes,Yes,,,,,,,,
Borehole,SWALIM_WSIS,2008-08-02,Nugaal,Garoowe,Garowe BH6,Garowe,,,8.4061,48.4799,,Abandoned,,,,,,,,
Spring,SWALIM_WSIS,2008-05-27,Bari,Bossaso,Conqore 2,,,,11.2095,49.2068,Yes,Yes,,,,,,,,
Dug Well,SWALIM_WSIS,2009-02-08,Mudug,Hobyo,Lulubsho,,,,5.5745,48.0804,,,,,,,,,,
Borehole,,,Bay,Baydhaba,Madhawey,Iriwirka,,,3.1677,43.56,,Abandoned,,Community,,,,,,
Borehole,,,Bay,Baydhaba,Gududo Dhunti,Bulo Sokor,,,2.8035,43.1861,Yes,Yes,,Community,,,,,,
Dug Well,,2022-03-19,,,,,,,0.0,0.0,,,,,,,,,,
Dam,,2022-04-18,,,,,,,0.0,0.0,,,,,,,,,,
Dug Well,SWALIM_WSIS,2009-08-16,Galgaduud,Ceel Dheer,Waxweyn,,,,4.326,47.8157,,,,,,,,,,
Dug Well,SWALIM_WSIS,2008-05-29,Bari,Bossaso,Ibrahim,,,,11.2846,49.1704,Yes,Yes,,,,,,,,
Spring,SWALIM_WSIS,2008-05-17,Awdal,Zeylac,Galiisha,Habaas,,,10.4185,42.8112,Yes,,,,,,,,,
Dug Well,SWALIM_WSIS,2009-08-15,Galgaduud,Ceel Dheer,Xulcaduur,Xananley,,,4.0344,47.3298,,No,,,,,,,,
Dug Well,SWALIM_WSIS,2009-08-15,Galgaduud,Ceel Dheer,Xalanley 2,,,,4.1197,47.4437,,Abandoned,,,,,,,,
Borehole,FGS Ministry of Energy and Water Resources,,Bay,Baydhaba,Wardile,Awdinle,,,3.1592,43.3961,,Yes,,Community,,,,,,
Dug Well,SWALIM_WSIS,2009-02-09,Mudug,Hobyo,Garday,Afgadud,,,5.7653,48.1223,,Yes,,,,,,,,
Berkad,SWALIM Archives,2005-02-22,Hiraan,Belet Weyne,,,,,4.798,45.798,,Yes,,,,,,,,
Dug Well,SWALIM_WSIS,2008-05-14,Sool,Laas Caanood,Ceel quule,Canjiid,,,8.6069,47.3028,Yes,Yes,,,,,,,,
Dug Well,SWALIM_WSIS,2008-07-22,Nugaal,Eyl,Biyo Cado,Eyl,,,8.2409,49.827,Yes,Yes,,,,,,,,
Dam,SWALIM_WSIS,2009-08-10,Bay,Baydhaba,Iriwarka bulo Barako,Gorisano,,,2.9175,43.3691,Yes,Yes,,,,,,,,
Spring,SWALIM_WSIS,2008-06-18,Awdal,Borama,Biyo Cad,Gorayo Cawl,,,9.988,43.2354,Yes,Yes,,,,,,,,
Dug Well,SWALIM_WSIS,2008-06-25,Sool,Xudun,Sufuraweyne,Dhaban,,,9.3018,47.5605,Yes,Yes,,,,,,,,
Dug Well,SWALIM_WSIS,2009-06-10,Middle Juba,Saakow,Qududey,,,,1.89,42.5,Yes,Yes,,,,,,,,
Dug Well,SWALIM_WSIS,2008-05-31,Awdal,Borama,Abase Gaagaab 1,,,,10.1279,43.2052,,Abandoned,,,,,,,,
Borehole,SWALIM_WSIS,2008-06-03,Bari,Qardho,Koleejo BH2,,,,9.5054,49.0919,,,,,,,,,,
Dug Well,SWALIM_WSIS,2008-06-03,Sool,Taleex,Kubo 2,,,,9.502,49.0614,,,,,,,,,,
Dug Well,SWALIM_WSIS,2008-06-03,Woqooyi Galbeed,Gebiley,Hadhley 1,Hadhley,,,9.8377,43.6323,,,,,,,,,,
Borehole,FGS Ministry of Energy and Water Resources,,Bay,Baydhaba,Caafi BH4,Beyhawa,Caafi industry,1/1/2016,3.1453,43.6561,,No,,Private,,,,,,
Borehole,SWALIM_WSIS,2008-06-04,Bari,Qardho,Rako BH1,Gardo,,,9.7332,49.5024,,,,,,,,,,
Spring,SWALIM_WSIS,2008-06-21,Togdheer,Sheikh,Qaradh Spring,Qaradh,,,10.0629,45.7053,Yes,Yes,,,,,,,,
Spring,SWALIM_WSIS,2008-06-01,Bari,Bossaso,Gaaca,Bossaso,,,11.0982,49.3296,,,,,,,,,,
Berkad,SWALIM Archives,2005-02-22,Hiraan,Belet Weyne,,,,,4.8338,45.4056,,Yes,,,,,,,,
Dam,SWALIM_WSIS,2008-06-19,Togdheer,Burco,Geeddi Haan Dam,Geeddi Haan,,,9.0264,45.6576,,,,,,,,,,
Dug Well,SWALIM_WSIS,2008-05-29,Bari,Bossaso,Xerolaspu,,,,11.2821,49.1752,Yes,Yes,,,,,,,,
Dug Well,SWALIM_WSIS,2008-05-03,Bari,Bossaso,Ceeldaahir,Carmo,,,10.6401,49.05,,,,,,,,,,
Dug Well,BRCiS,2017-06-01,Lower Shabelle,Afgooye,Anoole,Anoole,,,2.1504,45.1167,,,,,,,,,,
Dam,SWALIM_WSIS,2009-09-28,Bay,Diinsoor,Abarey,El-Beto,,,2.0208,42.568,Yes,Yes,,,,,,,,
Dug Well,SWALIM_GSA,2016-02-26,Mudug,Xarardheere,Ceel Qalow SH,Ceel Qalow,,,4.4252,47.7076,,,,,,,,,,
Borehole,FGS Ministry of Energy and Water Resources,,Bay,Baydhaba,Shati,Bakin,,,3.132,43.6716,,Yes,,Private,,,,,,
Dug Well,SWALIM_WSIS,2008-05-19,Awdal,Borama,AF Doox 3,Boon,,,10.2023,43.0466,No,No,,,,,,,,
Berkad,SWALIM Archives,2005-02-22,Hiraan,Belet Weyne,,,,,4.6274,45.4511,,Yes,,,,,,,,
Dug Well,SWALIM_WSIS,2009-08-15,Galgaduud,Ceel Dheer,Bur Bur,,,,4.3025,47.596,,Yes,,,,,,,,
Borehole,SCF,2005-02-22,Hiraan,Belet Weyne,Ceel Cade,,,,4.729,44.7163,,No,,,,,,,,
Dug Well,SWALIM_WSIS,2009-07-28,Mudug,Hobyo,Galqurun,Biriqoday,,,6.1321,47.6768,,,,,,,,,,
Dam,SWALIM_WSIS,2008-06-19,Woqooyi Galbeed,Gebiley,Daheeye,Kala Baydh,,,9.625,43.4422,No,Yes,,,,,,,,
Dug Well,SWALIM_WSIS,2008-05-29,Bari,Bossaso,Said Ahmed,Laanta Hawada,,,11.2816,49.1691,Yes,Yes,,,,,,,,
Dam,SWALIM_WSIS,2008-06-16,Woqooyi Galbeed,Gebiley,Kooshin,Wajaale Town,,,9.6013,43.3329,No,Yes,,,,,,,,
Borehole,,,Bay,Baydhaba,Hawal Barbar,,,,2.7415,43.1645,,No,,,,,,,,
Dug Well,,2022-03-24,Bakool,xudur,Saweeda shallow well,Bullow ,,25/03/2022,0.0,0.0,,,,,,,,,,
Dam,,2022-03-19,,,,,,,0.0,0.0,,,,,,,,,,
Spring,SWALIM_WSIS,2008-06-01,Bari,Bossaso,Badowle,Karin,,,10.9717,49.2085,Yes,Yes,,,,,,,,
Dam,SWALIM_WSIS,2009-05-10,Bay,Diinsoor,Garasdulun,Garasdulun,,,2.3541,42.7727,Yes,Yes,,,,,,,,
Spring,SWALIM_WSIS,2008-05-29,Awdal,Borama,IL Gorey 4,Baki,,,10.0649,43.3308,Yes,Yes,,,,,,,,
Borehole,FGS Ministry of Energy and Water Resources,,Bay,Baydhaba,Bayhawa BH5,Behanooy,Warjanay company,1/1/2015,3.1433,43.654,,Yes,,Private,,,,,,
Borehole,SCF,2005-02-22,Hiraan,Belet Weyne,Ceel-biyooley,,,,4.7791,44.7163,,Yes,,,,,,,,
Spring,SWALIM_WSIS,2008-06-01,Awdal,Borama,Biyoxumo,Xoorey,,,10.174,43.3446,Yes,Yes,,,,,,,,
Spring,SWALIM_WSIS,2008-05-26,Bari,Bossaso,Shimis 1,Qaw,,,11.1866,48.9782,Yes,Yes,,,,,,,,
Spring,SWALIM_WSIS,2008-06-01,Awdal,Borama,Mareegaley,Xoorey,,,10.1672,43.353,Yes,Yes,,,,,,,,
Dam,SWALIM_WSIS,2009-08-24,Bay,Bur Hakaba,Hiska,Wadajir,,,2.7908,44.0749,Yes,No,,,,,,,,
Dam,SWALIM_WSIS,2008-06-16,Awdal,Borama,Magaalo Cad 2,Magaalo Cad,,,9.6949,43.2988,No,Yes,,,,,,,,
Dam,SWALIM_WSIS,2009-10-19,Gedo,Garbahaarey,Wartoosi,Garsal,,,2.81,42.5,Yes,Yes,,,,,,,,
Spring,SWALIM_WSIS,2008-05-22,Woqooyi Galbeed,Hargeisa,Dacar Budhuq 1,,,,9.8591,44.5363,,,,,,,,,,
Berkad,BRCiS,2017-06-01,Bari,Iskushuban,Iskushuban,Iskushuban,,,10.2891,50.2358,,,,,,,,,,
Berkad,SWALIM_WSIS,2008-06-19,Togdheer,Burco,Suryo Qansax,Suryo Qansax,,,9.3338,45.5214,Yes,Yes,,,,,,,,
Dam,COOPI,2012-12-24,Galgaduud,Cabudwaaq,Dhabad,Dhabad,,,6.4256,46.4684,Yes,Yes,,,,,,,,
Dug Well,SWALIM_WSIS,2008-09-06,Sool,Xudun,Shoodhe Dug Well,Dogoble,,,9.4098,47.432,No,No,,,,,,,,
Dug Well,SWALIM_WSIS,2009-08-09,Galgaduud,Ceel Dheer,Cali Afrax,,,,4.128,46.6705,,Yes,,,,,,,,
Dug Well,SWALIM_WSIS,2008-06-03,Sool,Taleex,Kubo 8,,,,9.5025,49.0622,,,,,,,,,,
Borehole,SCF,2005-02-22,Hiraan,Belet Weyne,Baadikeen,,,,4.8161,44.6415,,Yes,,,,,,,,
Borehole,FGS Ministry of Energy and Water Resources,,Bay,Baydhaba,Bayhawa BH3,Behanooy,Warjanay company,1/1/2015,3.1454,43.6538,Yes,Yes,,Private,,,,,,
Dam,COOPI,2012-12-19,Hiraan,Mataban,Dhugile,Dugile,,,5.4514,45.4319,Yes,Yes,,,,,,,,
Dug Well,SWALIM_WSIS,2008-07-24,Nugaal,Eyl,Ilig,Dhanaane,,,7.8072,49.8128,Yes,Yes,,,,,,,,
Spring,SWALIM_WSIS,2008-07-09,Bari,Bandar Beyla,AF Jaan,Dhuur,,,9.2303,50.6661,Yes,Yes,,,,,,,,
Berkad,GSA/SWALIM,2016-02-28,Galgaduud,Ceel Dheer,Cowsweyne BE,Cosweyne,,,4.1635,46.9133,,,,,,,,,,
Berkad,BRCiS,2017-06-01,Hiraan,Belet Weyne,Jiracle,Jiracle,,,5.0397,45.2901,,,,,,,,,,
Berkad,BRCiS,2017-06-01,Nugaal,Eyl,Qarxis,Qarxis,,,8.5002,49.5774,,,,,,,,,,
Dug Well,SWALIM_WSIS,2008-05-15,Togdheer,Burco,Qoryaale Dug Well 6,Kirir,,,9.069,45.9715,Yes,Yes,,,,,,,,
Dug Well,SWALIM_WSIS,2009-04-09,Mudug,Hobyo,Habyo,,,,5.3461,48.5236,,Yes,,,,,,,,
Spring,SWALIM_WSIS,2008-06-01,Awdal,Borama,Hadiile 1,Xamar,,,10.107,43.3326,Yes,Yes,,,,,,,,
Borehole,SCF,2005-02-22,Hiraan,Belet Weyne,Eel Idaad,,,,4.684,44.8929,,No,,,,,,,,
Borehole,SWALIM_WSIS,2008-08-06,Sanaag,Ceerigaabo,Carmaale BH3,Biyo guduud,,,10.4686,47.9518,No,No,,,,,,,,
Dug Well,SWALIM_WSIS,2008-05-30,Awdal,Baki,Qabuurta,Qabuurta,,,10.0476,43.4891,No,Yes,,,,,,,,
Spring,SWALIM_WSIS,2008-05-28,Bari,Bossaso,Las Gal,Qaw,,,11.2479,49.0384,Yes,Yes,,,,,,,,
Dug Well,SWALIM_WSIS,2008-05-15,Togdheer,Buhoodle,Hadhwanag,Hufiiro,,,8.7142,46.7319,Yes,Yes,,,,,,,,
Dam,SWALIM_WSIS,2009-10-14,Gedo,Baardheere,Takar,Takar,,,2.395,42.136,Yes,,,,,,,,,
Borehole,FGS Ministry of Energy and Water Resources,,Bay,Baydhaba,Quralow,Daniya,,,3.0269,43.2436,Yes,Yes,,Community,,,,,,
Dug Well,BRCiS,2017-06-01,Mudug,Hobyo,Budbud,Budbud,,,6.1808,48.6874,,,,,,,,,,
Dug Well,SWALIM_WSIS,2009-07-25,Bakool,Xudur,Godle,,,,4.0208,44.25,Yes,Yes,,,,,,,,2007-01-25
Dug Well,SWALIM_WSIS,2008-06-02,Awdal,Baki,Carro Weyne 1,Carro Weyne,,,10.2802,43.4124,No,No,,,,,,,,
Dug Well,SWALIM_WSIS,2008-07-26,Mudug,Jariban,Buq 1,Jiifle,,,7.3578,49.6135,No,No,,,,,,,,
Dug Well,SWALIM_WSIS,2008-05-16,Awdal,Lughaye,Hussein,wadajir,,,10.5602,43.2502,Yes,Yes,,,,,,,,
Dug Well,SWALIM_WSIS,2008-06-03,Sool,Taleex,Kubo 3,,,,9.5014,49.0604,Yes,Yes,,,,,,,,
Dam,SWALIM_WSIS,2009-07-28,Bay,Diinsoor,Oofko ANN,Waryaroy,,,2.434,42.9822,Yes,Yes,,,,,,,,
Dam,SWALIM_WSIS,2009-08-17,Bakool,Waajid,Bakaar Weyn,,,,3.6875,43.4777,No,No,,,,,,,,
Dug Well,SWALIM_WSIS,2008-05-31,Awdal,Borama,Abokor Cadaawe 2,Baki,,,10.0342,43.3433,,,,,,,,,,
Dug Well,SWALIM_WSIS,2008-05-20,Awdal,Borama,Fadhi Xun 3,Weeraar,,,10.292,43.296,,,,,,,,,,
Dug Well,SWALIM_WSIS,2008-12-06,Woqooyi Galbeed,Gebiley,Yanuunta 3,gebiley,,,9.7214,43.6579,Yes,Yes,,,,,,,,
Spring,SWALIM_WSIS,2008-05-16,Awdal,Zeylac,Buqdhada Jidhi,Buqdhada madow,,,10.5807,43.0316,Yes,,,,,,,,,
Spring,SWALIM_WSIS,2008-05-28,Sanaag,Ceerigaabo,Xurba Spring,Maydh,,,10.9579,47.2315,Yes,Yes,,,,,,,,
Berkad,BRCiS,2017-06-01,Sanaag,Ceerigaabo,Dararweyne,Dararweyne,,,9.7568,47.5305,,,,,,,,,,
Berkad,BRCiS,2017-06-01,Sanaag,Ceel Afweyn,Huluul,Huluul,,,9.967,46.7018,,,,,,,,,,
Spring,SWALIM_WSIS,2008-06-01,Awdal,Borama,Cadeyga Hagoogan,Xoorey,,,10.1729,43.3407,No,Yes,,,,,,,,
Dug Well,BRCiS,2017-06-01,Bakool,Xudur,Gubad galool,Gubad galool,,,4.3564,43.9301,,,,,,,,,,
Dug Well,SWALIM_WSIS,2008-05-27,Sool,Xudun,Gorofley 1,Godaalo,,,9.1335,47.7564,Yes,Yes,,,,,,,,
Berkad,BRCiS,2017-06-01,Mudug,Hobyo,Qararow,Qararow,,,5.2262,48.2502,,,,,,,,,,
Dug Well,SWALIM_WSIS,2009-10-28,Gedo,Baardheere,Reydab 1,Reydab,,,2.68,42.15,Yes,Yes,,,,,,,,
Spring,SWALIM_WSIS,2008-06-15,Bari,Bossaso,Dibir Ufayn,Ufayn,,,10.7529,49.733,Yes,Yes,,,,,,,,
Dug Well,SWALIM_WSIS,2009-08-09,Galgaduud,Ceel Dheer,Cali Afrax1,,,,4.1265,46.6694,,No,,,,,,,,
Spring,SWALIM_WSIS,2008-06-01,Awdal,Borama,Hadiile 2,Xamar,,,10.1067,43.332,Yes,Yes,,,,,,,,
Borehole,SWALIM_WSIS,2008-06-05,Bari,Qardho,Jeded BH2,Libaaxar,,,9.4043,49.5881,,,,,,,,,,
Dug Well,SWALIM_WSIS,2008-05-29,Bari,Bossaso,Mako,,,,11.2841,49.1747,,,,,,,,,,
Dug Well,SWALIM_WSIS,2008-06-18,Togdheer,Sheikh,Lahelow Dug Well 5,Iskuban,,,9.9293,44.9961,,,,,,,,,,
Dam,SWALIM_WSIS,2008-06-29,Woqooyi Galbeed,Hargeisa,Qoton Weyn,,,,9.1067,44.4835,Yes,Yes,,,,,,,,
Dug Well,SWALIM_WSIS,2009-10-21,Gedo,Luuq,Malmaley4,Banaaney,,,3.9,42.9,Yes,Yes,,,,,,,,
Dug Well,SWALIM_WSIS,2009-07-25,Galgaduud,Cabudwaaq,Dhabbad HDO 5,Ballihowd,,,6.4331,46.4632,,No,,,,,,,,
Dug Well,SWALIM_WSIS,2009-08-09,Galgaduud,Ceel Dheer,Ceel Dhaabab,,,,4.198,46.5143,,Yes,,,,,,,,
Dug Well,SWALIM_WSIS,2009-08-19,Galgaduud,Ceel Dheer,Shiilmadow,,,,3.7016,47.2186,,,,,,,,,,
Berkad,SWALIM_WSIS,2008-06-18,Togdheer,Owdweyne,Deriq Maraa Berkad,Deriq Maraa,,,9.8104,44.8223,,,,,,,,,,
Dug Well,SWALIM_WSIS,2009-04-09,Mudug,Hobyo,Guroley,Wisil,,,5.4364,48.0425,,Yes,,,,,,,,
Borehole,FGS Ministry of Energy and Water Resources,,Bay,Baydhaba,Nafis 1,Cadada,,,3.1286,43.6603,,Yes,,Other,,,,,,
Dug Well,SWALIM_WSIS,2008-08-03,Nugaal,Garoowe,Garowe 3,,,,8.4027,48.4899,Yes,Yes,,,,,,,,
Dam,SWALIM_WSIS,2009-01-10,Middle Juba,Saakow,Yuub buule,,,,1.723,42.2862,,Yes,,,,,,,,
Borehole,FGS Ministry of Energy and Water Resources,,Bay,Baydhaba,Bayhawa BH2,Behanooy,Warjanay company,1/1/2015,3.1449,43.654,Yes,No,,Private,,,,,,
Dug Well,SWALIM_WSIS,2008-05-29,Awdal,Baki,Baki 2,Baki,,,10.0271,43.3709,,,,,,,,,,
Borehole,FGS Ministry of Energy and Water Resources,,Bay,Baydhaba,Awshino,Bulo Shahi,,,3.2041,43.3867,,Yes,,Community,,,,,,
Dug Well,SWALIM_WSIS,2008-12-05,Awdal,Baki,Gargaara 3,Hulka,,,10.3098,43.8066,Yes,Yes,,,,,,,,
Spring,SWALIM_WSIS,2008-06-01,Bari,Bossaso,Jiniyaley,Laag,,,11.0174,49.1819,Yes,Yes,,,,,,,,
Spring,SWALIM_WSIS,2008-07-22,Nugaal,Eyl,Spring 1,,,,8.0133,49.9169,,,,,,,,,,
Dug Well,SWALIM_WSIS,2008-05-20,Sool,Taleex,Carrooley,Godaalo,,,8.8603,48.1356,Yes,Yes,,,,,,,,
Borehole,FGS Ministry of Energy and Water Resources,,Bay,Baydhaba,Beyhawa-Hospital BH1,Beyhawa,Muslim Charity,1/1/2013,3.1375,43.6544,No,No,,Community,,,,,,
Dug Well,SWALIM_WSIS,2008-06-02,Sool,Xudun,Dhaban,Sufra wayne,,,9.37,47.5024,No,Yes,,,,,,,,
Dug Well,SWALIM_WSIS,2008-11-06,Togdheer,Owdweyne,Harasheikh Dug Well 2,Qoton Dabo,,,9.3161,44.7598,Yes,Yes,,,,,,,,
Dug Well,SWALIM_WSIS,2009-08-13,Galgaduud,Ceel Dheer,Shaydhac,,,,3.9228,47.4684,,Yes,,,,,,,,
Dug Well,SWALIM_WSIS,2008-06-01,Bari,Bossaso,Yalho,Karin,,,10.9207,49.2572,Yes,Yes,,,,,,,,
Dug Well,SWALIM_WSIS,2008-05-13,Awdal,Baki,Hulka 2,,,,10.3514,43.9275,Yes,Yes,,,,,,,,
Dam,SWALIM_WSIS,2009-10-17,Bay,Qansax Dheere,Wargaras,Sheeboow,,,2.7292,42.5909,,,,,,,,,,
Spring,SWALIM_WSIS,2008-07-14,Nugaal,Garoowe,Kalcad,Siigadheer,,,8.8079,48.8909,,,,,,,,,,
Dam,SWALIM_WSIS,2009-10-28,Gedo,Baardheere,Xusula,Ali G,,,2.5,42.2,Yes,Yes,,,,,,,,
Berkad,SWALIM_WSIS,2008-06-19,Togdheer,Burco,Balli Hulle,Balli Hule,,,9.1963,45.5744,,No,,,,,,,,
Dug Well,SWALIM_WSIS,2008-05-19,Sool,Xudun,Cadabuur,Lafawayne,,,8.9333,47.3808,Yes,Yes,,,,,,,,
Dam,SWALIM_WSIS,2009-09-29,Middle Juba,Saakow,Nur Gabo,,,,1.8457,42.2654,,,,,,,,,,
Dug Well,SWALIM_WSIS,2008-05-14,Sool,Laas Caanood,Kalax 1,Yagori,,,8.16,47.0458,Yes,Yes,,,,,,,,
Dug Well,SWALIM_WSIS,2008-07-19,Nugaal,Garoowe,Darayle 1,Garowe,,,8.3634,48.417,,,,,,,,,,
Dug Well,SWALIM_WSIS,2008-07-08,Nugaal,Garoowe,Berdadawoco 1,,,,8.5023,48.7771,No,No,,,,,,,,
Dug Well,SWALIM_WSIS,2008-07-24,Nugaal,Eyl,Qoryaale,Ilig,,,7.7753,49.825,Yes,Yes,,,,,,,,
Dug Well,SWALIM_WSIS,2008-05-26,Sool,Taleex,Laasbaas,Kalacaad,,,9.2881,48.1289,Yes,Yes,,,,,,,,
Dug Well,SWALIM_WSIS,2008-06-21,Togdheer,Burco,Ceel Baxay Dug Well 1,Ceel Baxay,,,10.0317,45.9079,Yes,Yes,,,,,,,,
Spring,SWALIM_WSIS,2009-05-10,Gedo,Baardheere,Jungal 2,Jungal 2,,,2.35,42.0681,Yes,Yes,,,,,,,,
Berkad,SWALIM Archives,2005-02-22,Hiraan,Belet Weyne,,,,,4.9502,45.3519,,Yes,,,,,,,,
Berkad,BRCiS,2017-06-01,Sanaag,Ceerigaabo,Haldhaagan,Haldhaagan,,,10.8232,47.6385,,,,,,,,,,
Berkad,SWALIM Archives,2004-03-18,Woqooyi Galbeed,Hargeisa,,,,,9.0263,44.2112,,,,,,,,,,
Dam,SWALIM_WSIS,2009-08-13,Bay,Baydhaba,War Sagaro,Bulo Daleel,,,3.2167,43.5013,Yes,Yes,,,,,,,,
Dug Well,SWALIM_WSIS,2008-08-03,Nugaal,Garoowe,Garowe 2,,,,8.3982,48.4852,Yes,Yes,,,,,,,,
Spring,SWALIM_WSIS,2008-05-21,Sool,Taleex,Xalin,Taleex,,,9.0903,48.6214,Yes,Yes,,,,,,,,
Dug Well,SWALIM_WSIS,2008-07-28,Mudug,Jariban,Kulub,Ilo Kulub,,,7.0286,49.3828,Yes,Yes,,,,,,,,
Borehole,SWALIM_WSIS,2009-08-30,Galgaduud,Dhusa Marreb,Dhoobshaal,Dayex,,,5.5327,46.3783,,Yes,,Private,,,,,,
Dug Well,SWALIM_WSIS,2008-07-27,Mudug,Jariban,Ceel Lahelay,Ilo Kulub,,,7.0618,49.3998,No,No,,,,,,,,
Dug Well,SWALIM_WSIS,2008-08-03,Nugaal,Garoowe,Dr Ahmed,,,,8.3965,48.4769,Yes,Yes,,,,,,,,
Dug Well,SWALIM_WSIS,2008-07-27,Mudug,Jariban,Il Foocshe,Gaar Cad,,,7.171,49.4721,Yes,Yes,,,,,,,,
Dug Well,SWALIM_WSIS,2008-07-27,Mudug,Jariban,Doomaariyo,Gaar Cad,,,7.2642,49.5466,Yes,Yes,,,,,,,,
Dug Well,SWALIM_WSIS,2008-06-18,Sanaag,Laasqoray,Xun bays,Ceelayo,,,11.2684,48.7884,Yes,Yes,,,,,,,,
Spring,SWALIM_WSIS,2008-05-31,Sanaag,Ceerigaabo,Buq spring 2,Dayaxa,,,10.6214,47.177,Yes,Yes,,,,,,,,
Berkad,BRCiS,2017-06-01,Nugaal,Eyl,Diilin,Diilin,,,7.9749,49.3979,,,,,,,,,,
Berkad,SWALIM_WSIS,2008-06-21,Togdheer,Burco,Dhagax Dheer Dam,Dhagax Dheer,,,8.4205,45.7627,,,,,,,,,,
Dug Well,SWALIM_WSIS,2009-08-13,Bay,Baydhaba,kontog,Ideeda,, 1/15/1996,3.1977,43.2979,Yes,Yes,,,,,,,,
Dug Well,SWALIM_WSIS,2008-06-03,Woqooyi Galbeed,Gebiley,Hadhley 2,Hadhley,,,9.8325,43.6321,,,,,,,,,,
Dug Well,SWALIM_WSIS,2008-05-14,Awdal,Zeylac,Feedho weyn,Aasha Caddo,,,11.2573,43.4473,Yes,Yes,,,,,,,,
Berkad,SWALIM_WSIS,2008-06-19,Togdheer,Burco,ilma cilmi saalax,Balli Hule,,,9.1825,45.5807,,No,,,,,,,,
Dug Well,SWALIM_WSIS,2009-08-12,Galgaduud,Ceel Dheer,Cabdi Matan,Ceel Dhooble,,,4.056,47.5253,,Yes,,,,,,,,
Spring,SWALIM_WSIS,2009-10-28,Gedo,Baardheere,Dar,Dar,,,2.6041,42.204,Yes,Yes,,,,,,,,
Borehole,YME_GSA,2013-06-30,Mudug,Hobyo,Wisil BH,Wisil,,,5.4278,48.1211,,,,,,,,,,
Dug Well,FGS_MoEWR,2019-03-16,Banadir,Kaaraan,Haji faroole,Jabuti,Private,10-12-97,2.0513,45.3614,Not_known,No,,,,,,,,
Dug Well,SWALIM_WSIS,2008-08-03,Nugaal,Garoowe,Gardhere,,,,8.3982,48.4824,Yes,Yes,,,,,,,,
Dug Well,SWALIM_WSIS,2008-05-21,Sool,Taleex,Dhanaan toole,xerta talex,,,9.0694,48.4592,Yes,Yes,,,,,,,,
Dug Well,SWALIM_WSIS,2008-08-03,Nugaal,Garoowe,Mosque 1,,,,8.4067,48.4836,Yes,Yes,,,,,,,,
Dug Well,SWALIM_WSIS,2008-12-06,Woqooyi Galbeed,Gebiley,Horebili 3,gebiley,,,9.72,43.6517,,,,,,,,,,
Dug Well,SWALIM_WSIS,2008-06-29,Woqooyi Galbeed,Hargeisa,Bali Mataan,,,,9.1105,44.4825,Yes,Yes,,,,,,,,2007-06-01
Dam,SWALIM_WSIS,2008-05-24,Awdal,Borama,Mixile Dam,Boorame,,,9.9551,43.2356,Yes,Yes,,,,,,,,
Dug Well,FGS Ministry of Energy and Water Resources,2022-03-22,Middle Shabelle,jowhar,Reer Maxamed Fidow,Labiga,IMC,14/09/2019,2.8095483,45.4835367,yes,No,"1 year ago, because of the floods ",Communal,,,,,16-Sep-20,Rehabilitation 
Dug Well,SWALIM_WSIS,2008-08-03,Nugaal,Garoowe,UN Compound,,,,8.3994,48.4738,Yes,Yes,,,,,,,,
Dam,SWALIM_WSIS,2009-08-05,Bakool,Xudur,Goomare Tajeeg,,, 1/23/1984,4.1875,44.0682,,Yes,,,,,,,,2008-01-23
Berkad,BRCiS,2017-06-01,Bari,Iskushuban,Xiriro,Xiriro,,,9.9781,50.2454,,,,,,,,,,
Dug Well,SWALIM_WSIS,2008-07-06,Nugaal,Garoowe,Jibagale 2,,,,8.498,48.6251,Yes,Yes,,,,,,,,
Borehole,FGS Ministry of Energy and Water Resources,,Bay,Baydhaba,Wakalada Borehole,Isha,Warjanay company,14-03-16,3.1159,43.6471,Yes,Yes,,Private/Individual,,,,,,
Dug Well,SWALIM Archives,2004-07-01,Togdheer,Owdweyne,Ceelsame 4,,,,9.3349,45.1607,,,,,,,,,,
Dug Well,FGS Ministry of Energy and Water Resources,2022-04-25,Bakool,xudur,Kawaan Ka Dha,Kawaan ka Dha,Private,,4.22917,44.02273,yes,Yes,,Communal,,,,,,
Dug Well,SWALIM_WSIS,2008-05-19,Awdal,Borama,Af Doox 4,Boon,,,10.0468,43.0468,Yes,No,,,,,,,,
Spring,SWALIM_WSIS,2008-06-11,Bari,Iskushuban,Jaceyl,Dharoor,,,10.2864,50.2339,Yes,Yes,,,,,,,,
Dug Well,FGS Ministry of Energy and Water Resources,2022-04-24,Bakool,waajid,Geedi,Howl Wadaag ,Private,29/08/2006,3.814088,43.24393,yes,Yes,,Communal,,,,,,
Dug Well,FGS Ministry of Energy and Water Resources,2022-04-18,Bay,qansax_dheere,Jameeco zone1,James Zone 1,not_specified,,2.866856,43.005717,yes,Yes,,Communal,,2,,,,
Dug Well,SWALIM_GSA,2016-02-28,Galgaduud,Ceel Bur,Dari SH,Dari,,,4.3273,46.616,,,,,,,,,,
Dug Well,FGS Ministry of Energy and Water Resources,2022-04-24,Bakool,waajid,Qarar,Galbeed ,Community_,18/10/2003,3.809585,43.240864,yes,Yes,,Communal,,,,,,
Borehole,Puntland Ministry of Energy Minerals and Water,2022-04-01,Togdheer,buuhoodle,Horufadhi BH,Horufadhi,International Committee of The Red Cross,01/04/2019,8.5796919,46.4102163,yes,Abandoned,Needed deeply observation about the borehole problem ,,,,,,,
Dam,Somaliland Ministry of Water Resources Development,2022-04-17,Woqooyi Galbeed,hargeisa,Qoton wayne,Qoton wayne ,Community,14/08/2019,9.1064922,44.484365,no,No,10 months before becouse of the luck of enough rainfall.,Communal,,,,,,
Dug Well,FGS Ministry of Energy and Water Resources,2022-04-24,Bakool,waajid,Wadajir ,Wadajir,Private,13/11/1999,3.807203,43.248418,yes,Yes,,Communal,,,,,,
Dug Well,FGS Ministry of Energy and Water Resources,2022-04-24,Bakool,waajid,Hospital ,Waberi,Community_,19/11/1994,3.808702,43.254046,yes,Yes,,Communal,,,,,,
Dug Well,Somaliland Ministry of Water Resources Development,2022-04-26,Woqooyi Galbeed,hargeisa,Mohamoud Hashi dug well,Burco yar,Mohamoud Hashi,26/01/2022,9.6491616,44.2580643,yes,Yes,,Private/Individual,,0.06,,,,
Dug Well,FGS Ministry of Energy and Water Resources,2022-04-19,Lower Shabelle,baraawe,Dug well,Dayah ,United Nations Children's Fund,19/04/2022,1.1113876,44.0269073,yes,Yes,,Utility/Local Authority,,,,,19-Apr-22,Good interview 
Dug Well,SWALIM_WSIS,2008-07-16,Bari,Bandar Beyla,Baq Baq,Usgure,,,8.7006,50.0704,Yes,Yes,,,,,,,,
Dug Well,BRCiS,2017-06-01,Hiraan,Belet Weyne,Beletwein Town,Beletwein Town,,,4.7353,45.2067,,,,,,,,,,
Dug Well,SWALIM_WSIS,2008-05-18,Sool,Xudun,Tuursubag,Saaxa gabao,,,8.8453,47.3853,Yes,Yes,,,,,,,,
Dug Well,SWALIM_WSIS,2008-07-27,Mudug,Jariban,Gaar Cad,Doomaariyo,,,7.2371,49.5241,Yes,Yes,,,,,,,,
Spring,SWALIM_WSIS,2008-05-31,Bari,Bossaso,Gub,Laag,,,11.0532,49.175,Yes,Yes,,,,,,,,
Spring,SWALIM_WSIS,2008-07-21,Nugaal,Eyl,Il Dabey,Eyl,,,7.9794,49.8189,Yes,Yes,,,,,,,,
Berkad,SWALIM_WSIS,2008-06-21,Togdheer,Burco,Xaaji Maxied Biixi,Lisaaxle,,,8.6857,45.6695,,No,,,,,,,,
Dug Well,SWALIM_WSIS,2009-07-23,Mudug,Hobyo,Bitale,Zodaxtooce,,,6.7048,47.8337,,,,,,,,,,
Dug Well,SWALIM_WSIS,2009-08-11,Galgaduud,Ceel Dheer,Toxoow,Ceel Caraye,,,3.9395,47.405,,,,,,,,,,
Dam,Somaliland_MoWRD,2019-10-22,Sanaag,Ceerigaabo,Hingalool Dam,Hingalool,ARC, 3/19/2019,9.8086,48.3189,No,Yes,,, 3/17/2018,0.1,,,,
Borehole,FGS_MoEWR,2019-09-15,Galgaduud,Dhusa Marreb,Dalbile-Godinlabe two,Godinlabe two,Community,11-05-17,5.892,46.6284,Yes,Yes,,Private/Individual,,0.02,,,Construction of water tank,2010-10-13
Borehole,FGS_MoEWR,2019-08-13,Bay,Baydhaba,Xanano two,Xanano two,Diakonie Emergency Aid Bread for the World,11-09-16,3.1402,43.6655,No,Yes,,Private/Individual,,0.05,,,,
Dug Well,SWALIM_WSIS,2008-05-15,Togdheer,Burco,Beer Burco Yar 2,,,,9.3673,45.7625,No,No,,,,,,,,
Dug Well,SWALIM_WSIS,2009-07-22,Mudug,Hobyo,Xinduugan,,,,6.5017,47.7224,,Yes,,,,,,,,
Dug Well,SWALIM_WSIS,2008-06-01,Awdal,Borama,Xamarta,Xamarta Town,,,10.1051,43.3489,,,,,,,,,,
Dug Well,SWALIM_WSIS,2008-05-28,Bari,Bossaso,Fatax,,,,11.2895,49.2126,Yes,Yes,,,,,,,,
Dug Well,SWALIM_WSIS,2009-08-17,Bay,Bur Hakaba,Raydabo,Doyaley,,,2.867,43.9031,,,,,,,,,,
Dug Well,BRCiS,2017-06-01,Gedo,Doolow,Kabasa,Kabasa,,,4.1676,42.0913,,,,,,,,,,
Borehole,SWALIM_WSIS,2008-07-23,Mudug,Galdogob,Roox BH3,Bacaadweyn,,,7.1508,47.4351,Yes,Yes,,Private,,,,,,
Borehole,SWALIM_GSA,2018-06-06,Lower Shabelle,Afgooye,Elasha biyaha19,Siinkadheer,GTZ - German Agency for Technical Assistance,01-01-79,2.0608,45.1856,Yes,No,,PPP,,,,,,
Borehole,FGS_MoEWR,2018-12-31,Lower Shabelle,Afgooye,Abaadir,indhoolaqaala,,,2.0245,45.2374,Yes,Yes,,community,,,,,,
Borehole,SWALIM_HGS,2011-12-11,Nugaal,Garoowe,Diriye,,,,8.3988,48.4748,,Yes,,,,,,,,2005-07-20
Borehole,SWALIM_HGS,2011-12-13,Nugaal,Garoowe,Baley/BAB008,Baleey,,,8.48847,48.62397,,Yes,,,,,,,,1989-05-16
Dug Well,SWALIM_WSIS,2008-06-09,Bari,Caluula,Qajawe 1,Murcanyo,,,11.6796,50.4476,Yes,Yes,,,,,,,,
Dam,FGS Ministry of Energy and Water Resources,2022-04-21,Bay,bur_hakaba,Doweeda,Doweda,Community_,01/01/2011,2.837585,44.022469,no,No,,Communal,,,,,,
Borehole,SWALIM_GSA,2018-06-06,Lower Shabelle,Afgooye,Sheikh ahmed BH2,Jaran,Private,01-01-18,2.11,45.1694,Yes,Yes,,Private,,,,,,
Borehole,FGS_MoEWR,2019-01-09,Lower Shabelle,Afgooye,Shirkadda Horumarinta Biyaha Banadir,Halgan,Private,01-11-14,2.0707,45.3056,Yes,Yes,,Private,,1,,,,
Borehole,SWALIM_WSIS,2008-07-23,Mudug,Galdogob,Roox BH2,Bacaadweyn,,,7.1531,47.449,Yes,Yes,,Community,,,,,,
Dug Well,SWALIM_WSIS,2009-07-29,Mudug,Hobyo,Miirssare,Colgulla,,,5.9924,47.8974,,Yes,,,,,,,,
Borehole,Puntland_PSAWEN,2014-01-04,Mudug,Galkacyo,Gaar Balli Abaar,Gaalkacyo,Private,01-06-13,6.8638,47.4348,,No,,Private,,,,,,
Borehole,Puntland_PSAWEN,2013-12-25,Mudug,Galkacyo,Hemo,Hemo,Finland Government,01-06-06,7.143,47.5314,Yes,Yes,,Community,,,,,,
Dug Well,SWALIM_GSA,2017-05-25,Bakool,Tayeeglow,Gowbarre,Gowbarre,Community,,4.0208,44.3409,No,Yes,,,,,,,,
Borehole,SWALIM_WSIS,2009-01-09,Mudug,Hobyo,Tixiri,Bajero,,,5.6994,47.6363,,Yes,,,,,,,,
Dug Well,SWALIM_WSIS,2009-08-02,Galgaduud,Dhusa Marreb,Mareergur HDO1,Hadiile,,,5.7518,46.51,Dont know,Abandoned,,,,,,,,
Borehole,SWALIM_GSA,2016-02-20,Mudug,Hobyo,Jilableherre BH2,Jilableherere,SDRO,21-02-11,6.7081,48.0306,No,No,,Community,,,,,,
Borehole,SWALIM_GSA,2016-02-16,Mudug,Hobyo,Sarman BH,Gawaan,,16-02-11,5.3184,48.3283,,No,,Community,,,,,,
Borehole,YME_GSA,2011-12-01,Mudug,Hobyo,Bajeelo,Bajeelo,,,5.7865,47.703,,,,,,,,,,
Dug Well,FGS_MoEWR,2019-03-18,Banadir,Yaaqshiid,Ceelka jirid,Darjiinka,PENHA -  Pastoral and Environmental Network for the Horn of Africa,10/14/1990,2.0525,45.345,Yes,Yes,,,,,,,,
Borehole,SWALIM_GSA,2018-06-06,Middle Shabelle,Balcad,Alkowthar Water Supply BH2,Waberi,GTZ - German Agency for Technical Assistance,01-01-81,2.3557,45.3906,Yes,No,Other,Other,,,,,,
Berkad,BRCiS,2017-06-01,Hiraan,Belet Weyne,Qabno,Qabno,,,5.1433,45.4229,,,,,,,,,,
Borehole,SWALIM_WSIS,2008-07-21,Nugaal,Burtinle,Burtinle BH4,Xarfo,,,7.6502,47.8346,No,No,,,,,,,,
Borehole,SWALIM_WSIS,2008-08-02,Nugaal,Garoowe,Salaxley,Garowe,,,8.3084,48.5079,,,,,,,,,,
Borehole,Puntland_PSAWEN,2014-01-15,Nugaal,Garoowe,Cabdi Shiikh,Laba iyo labatanaad,Private,01-04-11,8.5054,48.6409,Yes,Yes,,Private,,,,,,
Borehole,SWALIM_HGS,2011-12-11,Nugaal,Garoowe,Diriye/GAB001,,,,8.39879,48.47475,,Yes,,,,,,,,2005-07-20
Borehole,SWALIM_HGS,2011-12-10,Nugaal,Garoowe,Diriye/GAB002,,,,8.39936,48.46754,,Yes,,,,,,,,
Borehole,SWALIM_HGS,2011-12-10,Nugaal,Garoowe,Diriye/GAB004,,,,8.39344,48.46879,,Yes,,,,,,,,
Dug Well,SWALIM_WSIS,2009-08-16,Galgaduud,Ceel Dheer,Ceel Qabobe 1,,,,4.2285,47.737,,Yes,,,,,,,,
Borehole,SWALIM_HGS,2011-12-10,Nugaal,Garoowe,Diriye/GAB005,,,,8.39354,48.46334,,No,,,,,,,,
Borehole,SWALIM_HGS,2012-02-04,Nugaal,Garoowe,Libaaxo/LIB057,,,,8.59923,49.18963,,,,,,,,,,1989-04-11
Dug Well,BRCiS,2017-06-01,Lower Shabelle,Afgooye,Anole,Anole,,,2.0282,45.289,,,,,,,,,,
Borehole,SWALIM_HGS,2011-12-10,Nugaal,Garoowe,Reebanti/GTEC COLLAGE,,,,8.4096,48.47636,,Yes,,,,,,,,
Borehole,SWALIM_HGS,2012-02-04,Nugaal,Garoowe,Sinujif/SAB056,,,,8.59172,49.06692,,Yes,,,,,,,,
Borehole,SWALIM_HGS,2011-12-12,Nugaal,Garoowe,Waberi/GAB007,,,,8.367,48.49736,,Yes,,,,,,,,2004-04-09
Borehole,SWALIM_HGS,2011-12-10,Nugaal,Garoowe,Diriye/GAB003,,,,8.39517,48.47057,,Yes,,,,,,,,1980-06-18
Dug Well,SWALIM_WSIS,2009-07-23,Mudug,Hobyo,Qodaxtoole,Bitale,,,6.6205,47.851,,Yes,,,,,,,,
Borehole,SWALIM_HGS,2012-01-17,Nugaal,Jariban,Gadobjiran/GOB050,,,,7.51331,49.41064,,Yes,,,,,,,,1982-05-18
Borehole,SWALIM_HGS,2011-12-13,Togdheer,Owdweyne,Biicile,,,,9.38073,45.1632,,No,,,,,,,,2009-02-15
Dug Well,SWALIM_WSIS,2009-08-15,Galgaduud,Ceel Dheer,Xalanley 1,,,,4.1197,47.4438,,Yes,,,,,,,,
Borehole,Somaliland_MoWR,2014-01-18,Sanaag,Ceerigaabo,Mahdi Mahamed Duals,Booca,Mahdi M. Duale ( Owner ),01-06-95,10.5791,47.2781,Yes,No,,Private,,,,,,
Borehole,Somaliland_MoWR,2014-01-25,Sool,Laas Caanood,Dhunyo Xuusho BH1,Dhunyo Xusho,Somaliland MoWR - Ministry of Water Resources ,01-06-12,8.5283,47.3352,No,No,,Public,,,,,,
Borehole,SWALIM_GSA,2016-02-07,Galgaduud,Dhusa Marreb,Salaxdhadhab ,Guriceel,Kuwait Government,07-02-12,5.2782,45.8021,Yes,Yes,,Community,,0.01,,,,
Borehole,SWALIM_HGS,2012-01-11,Sool,Caynabo,Gadhka/CAB001,,,,9.308,46.356,,Yes,,,,,,,,
Borehole,SWALIM_GSA,2016-02-06,Galgaduud,Dhusa Marreb,Ceel Baraf,Guriceel,Community,31-08-10,5.2359,45.8227,Yes,Yes,,Public-Private,,0.01,,,Lowara 7 5kw,2015-01-01
Dug Well,FGS_MoEWR,2019-01-01,Banadir,Warta Nabada,Caato,Waaxda1aad janaral daauud,Private,  2/1/1996,2.0434,45.3407,Yes,Yes,,,,1,,,,
Borehole,SWALIM_WSIS,2009-08-08,Galgaduud,Dhusa Marreb,Ceel Baraf1,Asaleeye,,,5.2364,45.8229,Yes,Yes,,Communal,20-08-18,,,,No intervention,
Borehole,FGS_MoEWR,2019-09-19,Galgaduud,Dhusa Marreb,Ceel Baraf2,Ceel baraf,NRC - Norwegian Refugee Council,01-01-19,5.2366,45.8229,No,No,"This source stopped before three days, Pum is blocked and nd then the people is trucking fromGuricel",Private,,,,,,
Borehole,SWALIM_GSA,2018-04-01,Galgaduud,Dhusa Marreb,Badar BH,Guriceel,Private,01-01-12,5.3003,45.861,Yes,Yes,,Private,01-01-12,,,,,
Borehole,SWALIM_GSA,2016-02-06,Galgaduud,Dhusa Marreb,Xareed BH,Guriceel,,01-09-13,5.3002,45.861,Yes,Yes,,Public-Private,,,,,,
Dug Well,FGS_MoEWR,2019-03-18,Banadir,Yaaqshiid,Al Mualim,Siisii,Private,11/15/1992,2.0585,45.3536,Not_known,Yes,,,,,,,,
Dug Well,FGS_MoEWR,2019-03-18,Banadir,Yaaqshiid,Al faraj,Lafweyn,Private,11-12-96,2.0633,45.3533,Not_known,No,,,,,,,,
Borehole,SWALIM_GSA,2016-02-07,Galgaduud,Dhusa Marreb,Gogobaale BH,Guriceel,,07-02-00,5.3229,45.8689,Yes,Yes,,Private,,,,,Constructed Water tank,
Dug Well,FGS_MoEWR,2019-03-18,Banadir,Yaaqshiid,Ceelka Ramadan,Ramadan,Private,10/13/1995,2.0714,45.3567,No,No,,,,,,,,
Borehole,COOPI,2012-12-17,Galgaduud,Dhusa Marreb,Bader,Guriel town,Private,25-06-03,5.3092,45.8761,Yes,Yes,,Community,,,,,,
Borehole,SWALIM_GSA,2018-04-01,Galgaduud,Dhusa Marreb,Shimbiroonshe BH2,Guriceel,Former Somali Government,01-01-82,5.3107,45.8775,No,No,Tech Breakdown,Community,,,,,,
Borehole,SCF,2005-02-22,Hiraan,Belet Weyne,Dhariyow,,,,4.8428,45.1701,,No,,,,,,,,
Borehole,SWALIM_GSA,2016-02-07,Galgaduud,Dhusa Marreb,Shimbiroonshe BH1,Guriceel,ICRC - International Committee of The Red Cross,07-02-00,5.3107,45.8776,Yes,Yes,,Community,,0.01,,,Constructed Water tank,
Borehole,YME_GSA,2012-05-31,Hiraan,Bulo Barde,Moqokori,Moqokori,,,4.0617,46.1344,,,,,,,,,,
Dug Well,SWALIM_GSA,2017-12-05,Bakool,Ceel Barde,Cimilow SH,Cimilow,Private,07-07-05,4.8269,43.6552,Yes,Yes,,,,,,,,
Dug Well,COOPI,2012-12-12,Galgaduud,Dhusa Marreb,Afwayne banan 1,Afwayne,Community, 12/4/2000,5.6564,46.5536,Yes,Yes,,,,,,,,
Dug Well,International Committee of The Red Cross,,,,,,International Committee of The Red Cross,,-1.577055,41.617418,,,,,,0.0,,,,
Borehole,SWALIM_GSA,2016-02-07,Galgaduud,Dhusa Marreb,Abshir BH,Guriceel,,07-02-00,5.3251,45.8798,Yes,Yes,,Community,01-01-00,,,,Elevated water tank construction,2004-01-01
Borehole,SWALIM_GSA,2018-04-01,Galgaduud,Dhusa Marreb,Jafanjeef BH2,Guriceel,Private,01-01-06,5.2978,45.8803,Yes,No,Tech Breakdown,Private,01-01-98,,,,,
Borehole,SWALIM_GSA,2016-02-07,Galgaduud,Dhusa Marreb,Jafanjeef BH1,Guriceel,,07-02-95,5.298,45.8809,Yes,Yes,,Private,,0.02,,,"Constructed Water tank,kiosk and generator room",2010-01-01
Borehole,SWALIM_GSA,2016-02-07,Galgaduud,Dhusa Marreb,Zamzam BH,Guriceel,,07-02-13,5.3123,45.8984,Yes,Yes,,Private,,0.02,,,,
Dug Well,SWALIM_WSIS,2009-08-08,Galgaduud,Dhusa Marreb,Badar,Deegaan IDP camp,,  1/3/2005,5.3093,45.876,Yes,Yes,,,,,,,,
Borehole,SWALIM_GSA,2018-04-01,Galgaduud,Dhusa Marreb,Cantobo BH,Guriceel,Private,01-01-14,5.3122,45.8984,Yes,Yes,,Private,01-01-14,,,,Elevated water tank construction,2017-01-01
Dug Well,SWALIM_GSA,2017-05-25,Bakool,Tayeeglow,Hoogeey,Hoogeey,Community,,3.8542,44.4773,No,Yes,,,,,,,,
Dug Well,FGS_MoEWR,2019-01-01,Banadir,Warta Nabada,Ceelka Tawakal,Waaxda 2aad Hantiwadaag,Private,  1/1/1994,2.0488,45.3343,Yes,Yes,,,,,,,,
Dug Well,FGS_MoEWR,2019-01-01,Banadir,Warta Nabada,Daahir xaaji,Waaxda1aad janaraal daauud,Private,12/20/1992,2.0449,45.3367,Yes,Yes,,,,0,,,,
Dug Well,FGS_MoEWR,2019-03-18,Banadir,Yaaqshiid,Al majiid,Darjiinka,Private,10-12-79,2.0521,45.3417,Not_known,No,,,,,,,,
Dug Well,FGS_MoEWR,2019-03-18,Banadir,Yaaqshiid,Ceel macan,Siinaay,Muslim Aid,10-12-13,2.061,45.3438,Not_known,No,,,,,,,,
Dug Well,FGS_MoEWR,2019-03-18,Banadir,Yaaqshiid,Cali cumar,Tokyo,Private,10/13/1994,2.0533,45.3473,Not_known,No,,,,,,,,
Dug Well,BRCiS,2017-06-01,Lower Shabelle,Afgooye,Beled-amin,Beled-amin,,,2.1504,45.1168,,,,,,,,,,
Dug Well,FGS_MoEWR,2019-03-18,Banadir,Yaaqshiid,Ceel tube weyne,Fagax,Private,11/13/2001,2.0639,45.3482,Not_known,No,,,,,,,,
Dug Well,SWALIM_WSIS,2009-08-15,Galgaduud,Ceel Dheer,Dalxiis,Xalanley,,,4.1353,47.5121,,Yes,,,,,,,,
Dug Well,FGS_MoEWR,2019-03-18,Banadir,Yaaqshiid,Mana xamzata,Ziizi,SAACID, 3/18/1994,2.0576,45.3538,Not_known,No,,,,,,,,
Dug Well,FGS_MoEWR,2019-10-27,Bakool,Ceel Barde,Ceel Dheer 2,Ceel Dheere,Community, 5/23/1971,4.8077,43.6431,yes,Yes,,,,,,,Animal troughs,2018-06-23
Dug Well,FGS_MoEWR,2019-10-27,Bakool,Ceel Barde,Ceel Dheer 1,Ceel Dheer,Community, 6/27/1974,4.8062,43.6434,yes,Yes,,,,,,,,
Dug Well,SWALIM_GSA,2016-02-09,Galgaduud,Dhusa Marreb,Faragoye SH,Dhuusamareeb,,  2/9/2016,5.4716,46.5265,No,Yes,,,,,,,,
Dug Well,SWALIM_GSA,2017-11-05,Bakool,Ceel Barde,Masatitka SH,Halane2,Public,29-06-05,4.825,43.6523,No,Yes,,,,,,,,
Dug Well,SWALIM_WSIS,2008-12-05,Awdal,Baki,Dacawaley,Dacawaley,,,10.4358,43.6468,Yes,Yes,,,,,,,,
Borehole,ADRA,2004-06-10,Hiraan,Bulo Barde,Halgan BH 1,Halgan  Village,Government of Somalia,01-01-63,4.2156,45.5667,Yes,Yes,,Community,,,,,,1998-01-01
Dug Well,SWALIM_WSIS,2009-08-04,Galgaduud,Dhusa Marreb,Higlaale,Faragooy,,,5.5051,46.5048,Yes,Yes,,,,,,,,2009-01-02
Dug Well,FGS_MoEWR,2019-10-25,Bakool,Ceel Barde,Haluul,El berde,Community, 6/20/1975,4.8284,43.6579,yes,Yes,,, 6/25/1970,,,,Troughs,2013-06-26
Dug Well,SWALIM_GSA,2017-12-05,Bakool,Ceel Barde,Biyo Qaboobe SH,Biyo Qaboobe,Private,07-07-05,4.8241,43.6581,Yes,Yes,,,,,,,,
Dug Well,SWALIM_GSA,2017-11-05,Bakool,Ceel Barde,Eldheer,Eldhere,Community,26-06-05,4.8265,43.6581,Yes,Yes,,,,,,,,
Dug Well,SWALIM_GSA,2017-11-05,Bakool,Ceel Barde,HIRRE SH,Halane1,Public,01-07-05,4.8276,43.6585,No,Yes,,,,,,,,
Dug Well,SWALIM_WSIS,2008-06-12,Bari,Caluula,Cumar Qariib,Tooxin,,,11.7522,51.2555,Yes,Yes,,,,,,,,
Borehole,Somaliland_MoWRD,2019-11-06,Sool,Caynabo,Cawil Cunaaye,Cawil cunaaye,Private,06-11-97,8.9301,46.2202,Yes,Yes,,Private/Individual,,,,,"Solar installation 
Generator 
Storage tank",2018-08-06
Borehole,COOPI,2012-12-18,Galgaduud,Dhusa Marreb,Ceel jiirow,Guriel,Community,09-12-00,5.3153,45.919,Yes,Yes,,Community,,,,,,2001-05-07
Dug Well,SWALIM_WSIS,2009-07-25,Mudug,Galkacyo,Docole Farale,Carfuuda,,,6.6638,47.5543,,Yes,,,,,,,,
Borehole,FGS_MoEWR,2019-09-19,Galgaduud,Dhusa Marreb,Ceeldheer,Ceeldheer,Ahmed Salad Naxar,13-02-12,5.3685,46.1855,Yes,Yes,,Private/Individual,,0.01,,,Rehabilitation of water tank and water supply,2018-11-20
Borehole,SWALIM_GSA,2016-02-08,Galgaduud,Dhusa Marreb,Ceeldheere BH,Dhuusamareeb,IIDA,08-10-11,5.3685,46.1855,Yes,Yes,,Community,,,,,,
Borehole,SWALIM_WSIS,2009-07-31,Galgaduud,Dhusa Marreb,Kax Ina Baareey,Sinadhaqo,,,5.4617,46.3595,,No,,Private,,,,,,
Dug Well,SWALIM_GSA,2018-06-06,Galgaduud,Ceel Dheer,Ceel Dhooble-2,Cabdi Matan,Private,,4.056,47.5252,,,,Private,,,,,,
Dug Well,SWALIM_WSIS,2008-06-15,Togdheer,Burco,Higlo,Qoryaale,,,9.0987,46.0858,Yes,Yes,,,,,,,,
Borehole,FGS_MoEWR,2019-09-19,Galgaduud,Dhusa Marreb,Kax ina baarey,Kax ina baarey,EHH,24-05-17,5.5156,46.3641,Yes,Yes,,Private/Individual,,0.01,,,No intervention,
Borehole,SWALIM_WSIS,2009-07-30,Galgaduud,Dhusa Marreb,Ceel Cali Cadan,Waberi,,,5.54835,46.36771,,Abandoned,,Community,,,,,,
Dug Well,SWALIM_WSIS,2009-01-08,Mudug,Hobyo,Aflaws,,,,5.6333,47.8361,,Yes,,,,,,,,
Dug Well,SWALIM_GSA,2018-06-06,Lower Shabelle,Afgooye,Shombe SH,Ifiyoakhiro,Private,29-06-05,2.1377,45.1221,No,Yes,,Private,,,,,,
Dug Well,SWALIM_GSA,2018-06-06,Lower Shabelle,Afgooye,Shombe SHW,Hawa tako,,29-06-05,2.1377,45.1221,Yes,Yes,,Private,,,,,,
Borehole,SWALIM_GSA,2016-02-08,Galgaduud,Dhusa Marreb,Mahiigaan BH,Dhuusamareeb,,05-09-12,5.54845,46.36773,Yes,Yes,,Private,,,,,Made pipe line  to the village 1500m,2016-01-01
Borehole,COOPI,2012-12-14,Galgaduud,Dhusa Marreb,Qoqob,Dhusamareb,Former Somali Government,08-12-95,5.5328,46.3779,Yes,No,,Community,,,,,,
Borehole,ICRC,2013-02-05,Galgaduud,Dhusa Marreb,Qoqob,Qoqob,,,5.54842,46.36767,Yes,Yes,,Community,,,,,,
Borehole,SWALIM_GSA,2018-04-01,Galgaduud,Dhusa Marreb,Mahigan BH,Dhusamarreb,Private,01-01-10,5.5484,46.3678,Yes,Yes,,Private,01-01-14,,,,Elevated water tank construction,2017-01-01
Dug Well,SWALIM_WSIS,2008-08-03,Nugaal,Garoowe,Care Office Garowe,,,,8.3981,48.4745,Yes,Yes,,,,,,,,
Borehole,SWALIM_GSA,2016-02-08,Galgaduud,Dhusa Marreb,Secondary BH,Dhuusamareeb,GTZ - German Agency for Technical Assistance,08-02-82,5.5327,46.3779,Yes,Yes,,Community,01-01-01,,,,Pump supply,2012-01-01
Borehole,SWALIM_GSA,2016-02-08,Galgaduud,Dhusa Marreb,Wakaalada BH,Dhuusamareeb,,08-02-82,5.5303,46.3801,Yes,Yes,,Community,,,,,Elevated water tank construction,2016-01-01
Borehole,SCF,2005-02-22,Hiraan,Belet Weyne,Belet Amin 2,,,,4.8788,45.0542,,No,,,,,,,,
Borehole,SWALIM_WSIS,2009-07-30,Galgaduud,Dhusa Marreb,Cali Towlax,Dayax,,,5.5304,46.3802,Yes,Yes,,Private,,,,,,2007-12-15
Borehole,SWALIM_GSA,2018-04-01,Galgaduud,Dhusa Marreb,Ceelcagaf BH,Dhuusamareeb,Former Somali Government,01-01-82,5.5385,46.3833,Yes,Yes,,Community,,,,,Elevated water tank construction,2017-01-01
Dug Well,SWALIM_WSIS,2009-08-08,Galgaduud,Dhusa Marreb,Nation SH1,Dayax IDP camp,,  1/3/2002,5.3083,45.8861,Yes,Yes,,,,,,,,2006-01-03
Borehole,FGS_MoEWR,2019-09-19,Galgaduud,Dhusa Marreb,Ceel cagaf,Dayax,ICRC - International Committee of The Red Cross,20-07-18,5.5385,46.3835,Yes,Yes,,Communal,,,,,,
Borehole,Somaliland_MoWRD,2019-11-10,Sool,Caynabo,Waridaad,Waridaad,Chinese Government,11-11-67,9.314,46.2605,Yes,Yes,,Communal,,,,,Solar installation,2019-09-11
Borehole,SWALIM_HGS,2011-12-13,Sool,Laas Caanood,Howl Wadaag,,,,8.5297,47.3299,,,,,,,,,,2008-09-16
Dug Well,SWALIM_WSIS,2008-05-29,Sanaag,Ceerigaabo,Raaf,Las Qacableh,,,10.6028,47.4509,Yes,Yes,,,,,,,,
Dug Well,FGS_MoEWR,2019-10-16,Lower Shabelle,Afgooye,Anfac Dw,Carte,FGS MoEWR - Ministry of Energy and Water Resources of the Federal Republic of Somalia,10/16/2019,2.1392,45.1187,yes,Yes,,,,0.02,,,,
Dug Well,BRCiS,2017-06-01,Lower Shabelle,Afgooye,Marerey,Marerey,,,2.1493,45.1196,,,,,,,,,,
Dug Well,SWALIM_GSA,2018-06-06,Galgaduud,Ceel Dheer,Ceel Qabobe-1,Ceel Qabobe,Private,,4.2305,47.7373,,,,Private,,,,,,
Dug Well,SWALIM_GSA,2018-01-05,Lower Shabelle,Afgooye,Bali-baley SH,Bali-Baley,,,2.1567,45.1311,,Yes,,,,,,,"full rehabilitation, New BH requested",
Dug Well,SWALIM_WSIS,2009-08-04,Galgaduud,Dhusa Marreb,Faragoy,Higlaale,,  9/2/1974,5.4711,46.5265,Yes,Yes,,,,,,,,2009-01-02
Dug Well,SWALIM_WSIS,2008-06-15,Togdheer,Burco,Ulasan 1,Ulasan,,,9.0265,46.1864,Yes,Yes,,,,,,,,
Dug Well,SWALIM_GSA,2018-06-06,Lower Shabelle,Afgooye,Dameeraale SH,Dameeraale,,03-07-05,2.2502,45.1312,Yes,,,Community,,,,,,
Dug Well,SWALIM_GSA,2018-01-05,Lower Shabelle,Afgooye,Hartoy,Hartoy,,,2.1709,45.1472,,No,,,,,,,full rehabilitation,
Dug Well,SWALIM_HGS,2011-12-20,Mudug,Galkacyo,Ba'adwein/MAW013,,,,7.21916,47.53732,,Yes,,,,,,,,2010-08-10
Dug Well,SWALIM_GSA,2018-04-01,Lower Shabelle,Afgooye,Kaxarow SH,Kaxarow,,02-07-05,2.2444,45.152,,Yes,,,06-07-05,,,,"Generator supply, and GI pipes replacement and Pump rep and generator room rehab",
Dug Well,SWALIM_GSA,2018-01-05,Lower Shabelle,Afgooye,El-sagal-gacal,Sagal-Gacal,,,2.1585,45.2092,,No,,,,,,,"Generator, gen. house, deepening of the Dug Well, pump rep and water tank cons",
Borehole,SWALIM_HGS,2012-02-15,Sanaag,Ceerigaabo,Ceerigaabo BH2,,,,10.63847,47.361,,Yes,,,,,,,,
Dug Well,SWALIM_WSIS,2009-08-04,Galgaduud,Dhusa Marreb,Haadfuul,Afweyne Bannaan,,,5.567,46.5911,Yes,Yes,,,,,,,,
Dug Well,ICRC,2014-10-03,Lower Shabelle,Afgooye,Libaaxley,Libaaxley,,,2.5145,45.2405,No,Yes,,,,,,,,
Dug Well,FGS_MoEWR,2019-10-22,Lower Shabelle,Afgooye,Cali Dhere DW,Jazeera,Zamzam Foundation, 5/18/2013,1.9595,45.1764,no,No,The pump is stopped,,,,,,,
Dug Well,FGS_MoEWR,2019-10-22,Lower Shabelle,Afgooye,Rayfal DW,Jazeera,Zamzam Foundation, 7/19/2014,1.9571,45.1773,yes,Yes,,,,,,,,
Dug Well,SWALIM_GSA,2018-04-01,Galgaduud,Dhusa Marreb,Ceel Baraf SH,Guriceel,Private,26-06-05,5.2359,45.8227,Yes,Yes,,Private,26-06-05,,,,Elevated water tank construction,2005-07-06
Borehole,Somaliland_MoWRD,2019-11-06,Sool,Caynabo,Wadamago,Wadamagoo,Chinese Government,11-10-74,8.9311,46.267,Yes,Yes,,Communal,,,,,No intervention,
Borehole,SWALIM_WSIS,2008-05-22,Sool,Taleex,Maysamo,Xalin,,,9.1133,48.6439,Yes,Yes,,Community,,,,,,
Dug Well,SWALIM_GSA,2018-06-06,Galgaduud,Ceel Dheer,Ceel Qororoe,Cabdi Matan,Private,,3.9945,47.4606,,,,Private,,,,,,
Dug Well,SWALIM_GSA,2018-06-06,Galgaduud,Ceel Dheer,Ceel Dhooble-1,Cabdi Matan,Private,,4.0033,47.4704,,,,Private,,,,,,
Dug Well,SWALIM_WSIS,2009-08-12,Galgaduud,Ceel Dheer,Ceel Dhooble,Cabdi Matan,,,4.0013,47.4726,,Yes,,,,,,,,
Dug Well,SWALIM_GSA,2018-06-06,Galgaduud,Ceel Dheer,Maraay suuley SH,Masagwaay,Private,01-07-05,4.0439,47.4776,,Yes,,Private,,,,,,
Dug Well,SWALIM_GSA,2018-06-06,Galgaduud,Ceel Dheer,Burtuble SH,Masagwaay,Private,27-06-05,4.1085,47.5242,,Yes,,Private,,,,,,
Dug Well,SWALIM_GSA,2018-06-06,Galgaduud,Ceel Dheer,Hodley,El Medi,Private,,4.1111,47.6021,,,,Private,,,,,,
Dug Well,SWALIM_GSA,2018-06-06,Galgaduud,Ceel Dheer,Dur Dur,Ceel Qabobe,Private,,4.3851,47.6782,,,,Private,,,,,,
Dug Well,SWALIM_WSIS,2009-08-16,Galgaduud,Ceel Dheer,Ceel Qabobe 2,,,,4.2318,47.7362,,Yes,,,,,,,,
Dug Well,SWALIM_GSA,2018-06-06,Galgaduud,Ceel Dheer,Ceel Masajid,Ceel Qabobe,Private,,4.2319,47.7364,,,,Private,,,,,,
Dug Well,SWALIM_GSA,2016-02-28,Galgaduud,Ceel Bur,Wabxo SH,Wabxo,,,4.5125,46.2837,,,,,,,,,,
Dug Well,SWALIM_WSIS,2009-07-25,Mudug,Galkacyo,Carrfuuda,Bohole,,,6.6359,47.5967,Yes,Yes,,,,,,,,
Dug Well,SWALIM_GSA,2018-06-06,Galgaduud,Ceel Bur,Ceel shiil SH,Cadarre,Private,14-06-05,4.6018,46.618,No,Yes,,Private,,,,,"pump, generator  pipes",
Borehole,Somaliland_MoWR,2014-02-02,Togdheer,Burco,Dahabshil BH1,Airport Area,Dahabshil Company,01-06-97,9.5415,45.5601,No,Yes,,Private,,,,,,
Dug Well,SWALIM_WSIS,2009-12-10,Middle Juba,Buaale,Manane,,WHO - United Nations World Health Organisation,  2/9/2008,0.8439,42.646,No,,,,,,,,,
Dug Well,SWALIM_GSA,2018-06-06,Galgaduud,Ceel Bur,Ceel wakiil SH,Taranbi,Private,29-06-05,4.3213,46.6181,,Yes,,Private,,,,,,
Dug Well,SWALIM_GSA,2016-02-28,Galgaduud,Ceel Bur,Dac SH,Dac,,,4.4994,46.6843,,,,,,,,,,
Borehole,ADRA,2004-06-14,Hiraan,Belet Weyne,Jawil BH,Belet Weyne,Government of Somalia,01-01-64,4.9167,45.2231,Yes,Yes,,,,,,,,1999-01-01
Dug Well,SWALIM_WSIS,2008-07-06,Nugaal,Garoowe,Jibagale 3,,,,8.4917,48.6285,Yes,Yes,,,,,,,,
Borehole,Somaliland_MoWRD,2019-11-10,Sool,Caynabo,Jaleelo,Wadaamagoo,Private,10-06-11,8.932,46.3141,Yes,Yes,,Private/Individual,,,,,,
Borehole,SWALIM_WSIS,2008-05-17,Sanaag,Ceel Afweyn,Garadag,,,,9.5121,46.8562,,No,,,,,,,,
Dug Well,SWALIM_GSA,2016-02-28,Galgaduud,Ceel Bur,Ahmed Farax,Ahmed Farax,,,4.6524,46.8588,,,,,,,,,,
Dug Well,SWALIM_GSA,2016-02-28,Galgaduud,Ceel Bur,Cadarre SH,Cadarre,,,4.5172,46.8911,,,,,,,,,,
Dug Well,SWALIM_GSA,2018-04-01,Galgaduud,Dhusa Marreb,Badar SH,Guriceel,Private,22-06-05,5.3092,45.8761,Yes,Yes,,Private,22-06-05,,,,Elevated water tank construction,2005-07-06
Dug Well,SWALIM_GSA,2016-02-07,Galgaduud,Dhusa Marreb,Nation SH,Guriceel,Other,  2/7/2005,5.3083,45.8862,Yes,Yes,,,,,,,Constructed Water tank,
Dug Well,SWALIM_GSA,2018-04-01,Galgaduud,Dhusa Marreb,Nation SH2,Guriceel,Private,05-07-05,5.3082,45.8863,Yes,Yes,,Private,25-06-05,,,,Elevated Water Tank Construction,2005-07-08
Dug Well,SWALIM_GSA,2018-04-01,Galgaduud,Dhusa Marreb,Jiirow SH,Guriceel,Private,30-06-05,5.3153,45.919,Yes,Yes,,Private,,,,,elevated water tank construction,2005-07-01
Dug Well,SWALIM_WSIS,2009-08-06,Galgaduud,Dhusa Marreb,Dumaaye,Ballicad,,,5.3988,46.129,Yes,Yes,,,,,,,,2000-01-03
Dug Well,COOPI,2012-12-12,Galgaduud,Dhusa Marreb,Inamid,Inamid,Community, 2/13/1986,5.6504,46.6619,Yes,Yes,,,,,,,,
Dug Well,SWALIM_GSA,2016-02-08,Galgaduud,Dhusa Marreb,Ceeldheere SH,Dhuusamareeb,,  9/3/1998,5.3681,46.1911,Yes,Yes,,,,,,,,
Dug Well,COOPI,2012-12-15,Galgaduud,Dhusa Marreb,Ceeldheere SH,El dhere,Community,,5.3681,46.1911,Yes,Yes,,,,,,,,2006-06-18
Dug Well,SWALIM_GSA,2018-04-01,Galgaduud,Dhusa Marreb,Celldheer SH,Guriceel,Community,31-05-05,5.368,46.1911,Yes,Yes,,Community,,,,,Well head decelopment,2005-06-27
Dug Well,SWALIM_WSIS,2009-08-06,Galgaduud,Dhusa Marreb,Ceell Dheere,Dunaaye,,  1/2/1942,5.368,46.1912,Yes,Yes,,,,,,,,
Dug Well,ICRC,2013-02-02,Galgaduud,Dhusa Marreb,Beercabdi Faarax 2,Beercabdi Faarax 2,,,5.2501,46.294,Yes,Yes,,,,,,,,
Dug Well,SWALIM_WSIS,2008-06-15,Togdheer,Burco,Ulasan 2,Ulasan,,,9.0265,46.1861,,No,,,,,,,,
Dug Well,SWALIM_HGS,2012-01-03,Togdheer,Burco,Koridh,Wadamagoo,,,8.9811,46.1299,,Yes,,,,,,,,1988-08-04
Dug Well,ICRC,2013-02-04,Galgaduud,Dhusa Marreb,Higlaale,Higlaale,,,5.3013,46.302,Yes,Yes,,,,,,,,
Borehole,Somaliland_MoWR,2014-01-18,Sanaag,Ceerigaabo,Awil Ali,Tuurshiid,Cawil Ali (owner),01-06-95,10.6016,47.3383,Yes,No,,Private,,,,,,
Borehole,SWALIM_GSA,2016-02-08,Galgaduud,Dhusa Marreb,Bulshakaab BH,Dhuusamareeb,,02-08-13,5.5375,46.3977,Yes,Yes,,Private,,0.01,,,,
Dug Well,SWALIM_WSIS,2009-06-10,Middle Juba,Saakow,Arbay,River Jurba,SIRA - Service International Relief Agency,,1.6049,42.4492,Yes,Yes,,,,,,,,
Borehole,Somaliland_MoWR,2014-02-03,Togdheer,Burco,Osman Farlajo,Abeesalay,Osman Farlajo Borehole,01-01-13,9.6199,45.4291,Yes,Yes,,Private,,,,,,
Dug Well,SWALIM_WSIS,2008-06-21,Togdheer,Burco,Doqoshay,Doqoshay,,,8.5112,45.7165,Yes,Yes,,,,,,,,
Borehole,ADRA,2004-06-15,Hiraan,Bulo Barde,Bur Weyne BH,Bur Weyne,Government of Somalia,01-01-90,3.5992,45.5558,Yes,Yes,,Community,,,,,,1999-01-01
Borehole,FGS_MoEWR,2019-09-19,Galgaduud,Dhusa Marreb,SHABAX,Between waaberi and Waxarcadde,Personal(Dhoobshax),23-05-14,5.5375,46.3977,Yes,Yes,,Private/Individual,,0.02,,,Water Tank,2017-06-01
Borehole,SWALIM_WSIS,2009-08-01,Galgaduud,Dhusa Marreb,Gubataale,Waabo,,,5.4852,46.46,No,No,,Private,,,,,,
Borehole,FGS_MoEWR,2019-09-19,Galgaduud,Dhusa Marreb,MareerGuur,Mareer guur,Former Somali Government,24-03-74,5.7559,46.5087,Yes,Yes,,Communal,15-11-00,0.001,,,Construction solar,2018-05-16
Borehole,SCF,2005-02-22,Hiraan,Belet Weyne,Nugal,,,,4.5152,45.2784,,Yes,,,,,,,,
Borehole,SWALIM_GSA,2016-02-09,Galgaduud,Dhusa Marreb,Mareerguur BH,Mareergur,Chinese Government,09-02-72,5.7558,46.5087,Yes,Yes,,Community,,0.01,,,"Constructed Water tank, generator new pump, generator room,",2011-01-01
Borehole,SWALIM_GSA,2016-02-09,Galgaduud,Dhusa Marreb,Biyocade BH,Mareergur,,09-02-06,5.7568,46.5113,Yes,Yes,,Private,,,,,Constructed Water tank,
Dug Well,SWALIM_WSIS,2008-05-15,Togdheer,Burco,Qoryaale Dug Well 5,Kirir,,,9.0687,45.9715,Yes,Yes,,,,,,,,
Dug Well,COOPI,2012-12-12,Galgaduud,Dhusa Marreb,Inamid,Ina mid,Community, 9/15/1980,5.6482,46.6605,Yes,Yes,,,,,,,,
Dug Well,SWALIM_GSA,2017-05-20,Bakool,Xudur,Biilae,Biilae,Private,,3.9762,44.1136,,Yes,,,,,,,,
Borehole,FGS_MoEWR,2019-09-15,Galgaduud,Dhusa Marreb,Fadalweyn BH,Fadalaweyn,Community,11-12-12,5.8976,46.5176,Yes,Yes,,Communal,,0.015,,,Changing the pum,2018-05-17
Dug Well,SWALIM_WSIS,2008-05-15,Togdheer,Burco,Qoryaale Dug Well 4,,,,9.0685,45.9715,Yes,Yes,,,,,,,,
Dug Well,SWALIM_WSIS,2008-05-29,Sanaag,Ceerigaabo,Las Qacableh,Raaf,,,10.5712,47.4523,Yes,Yes,,,,,,,,
Dug Well,SWALIM_GSA,2016-02-24,Mudug,Xarardheere,Xarardheere,Xarardheere,,,4.6504,47.8567,,,,,,,,,,
Borehole,SWALIM_GSA,2018-04-01,Galgaduud,Dhusa Marreb,Mareerguur BH,Gadoon,Chinese government,09-02-72,5.7558,46.5987,Yes,Yes,,Community,,,,,Full rehabilitation,2018-01-01
Borehole,SWALIM_GSA,2018-04-01,Galgaduud,Dhusa Marreb,Dalbile BH,Qaradhi,Community,01-01-10,5.8919,46.6283,Yes,Yes,,Community,01-01-07,,,,Elevated  water tank construction and generator supply,2010-01-01
Borehole,YME_GSA,2011-09-01,Hiraan,Cabudwaaq,Lebi-Hiiraan,Lebi-Hiiraan,,,5.2457,45.7186,,,,,,,,,,
Borehole,SWALIM_GSA,2016-01-30,Galgaduud,Dhusa Marreb,Dalbile BH1,GodInlabe,,30-07-05,5.892,46.6283,Yes,Yes,,Community,,0.01,,,Constructed Water tank,2010-01-01
Borehole,SWALIM_GSA,2016-01-30,Galgaduud,Dhusa Marreb,GodInlabe,GodInlabe,GTZ - German Agency for Technical Assistance,24-08-77,5.87429,46.63128,Yes,Yes,,Community,,0.01,,,Constructed Water tank,2005-01-01
Borehole,Somaliland_MoWRD,2019-11-03,Togdheer,Burco,Xuseen Borehole,Burco,Private,03-11-13,9.5203,45.4272,Yes,Yes,,Private/Individual,,,,,,
Dug Well,SWALIM_WSIS,2008-08-03,Nugaal,Garoowe,Osman Hagi,,,,8.394,48.4754,Yes,Yes,,,,,,,,
Borehole,Somaliland_MoWR,2014-01-12,Sool,Caynabo,Gadhkagumareed,Gadhgumareed,Chinese Government,01-06-68,9.3082,46.3554,Yes,Yes,,Public,,0.2,,,"Generator maintainance, rising pipe and pump replacement",2013-02-01
Borehole,FGS_MoEWR,2019-09-23,Hiraan,Belet Weyne,Jawiil,Jawiil,ADA,22-07-13,4.9228,45.2238,Yes,Yes,,Private/Individual,,0.025,,,"Water tank, water supply system",2014-07-20
Borehole,SCF,2005-02-22,Hiraan,Belet Weyne,Bardale,,,,4.6543,45.2266,,No,,,,,,,,
Borehole,SCF,2005-02-22,Hiraan,Belet Weyne,Eel Gaal,,,,4.8481,45.2399,,Yes,,,,,,,,
Borehole,SCF,2005-02-22,Hiraan,Belet Weyne,Ceel Jaale,,,,4.8495,45.2407,,Yes,,,,,,,,
Borehole,SCF,2005-02-22,Hiraan,Belet Weyne,Airport well,,,,4.7791,45.2443,,No,,,,,,,,
Borehole,SCF,2005-02-22,Hiraan,Belet Weyne,Birjeeb,,,,4.5746,45.2612,,No,,,,,,,,
Borehole,SCF,2005-02-22,Hiraan,Belet Weyne,Dur Dur,,,,4.4271,45.2976,,No,,,,,,,,
Dug Well,SWALIM_HGS,2012-02-23,Togdheer,Burco,Beer 2,,,,9.3673,45.7619,,Yes,,,,,,,,
Borehole,FGS_MoEWR,2019-09-23,Hiraan,Belet Weyne,Beergadiid,Beer gadiid,ICRC - International Committee of The Red Cross,19-04-11,5.0809,45.3106,Yes,Yes,,Private/Individual,,0.04,,,,
Borehole,ADRA,2004-06-23,Hiraan,Belet Weyne,Bergadid BH,Bergadid Village,Government of Somalia,,5.0794,45.3114,Yes,No,,Community,,,,,,1999-01-01
Borehole,ADRA,2004-06-22,Hiraan,Jalalaqsi,Bilaal Borehole,Bilaal Village,Government of Somalia,01-01-90,3.3794,45.4922,Yes,Yes,,Community,,,,,,2000-01-01
Dug Well,SWALIM_WSIS,2008-06-23,Sanaag,Laasqoray,Shimiqshimiq,Laas qoray,,,11.2813,48.4475,No,Yes,,,,,,,,
Dug Well,SWALIM_WSIS,2008-05-15,Togdheer,Burco,Qoryaale Dug Well 3,Kirir,,,9.0682,45.9716,Yes,Yes,,,,,,,,
Borehole,ADRA,2004-06-10,Hiraan,Bulo Barde,Beero Yabal,Beero Yabal Village,Government of Somalia,01-01-90,4.0506,45.5736,Yes,No,,Community,,,,,,
Dug Well,Somaliland_MoWRD,2019-09-27,Togdheer,Burco,Dug Well 2,Qoryaale,Community, 6/23/1960,9.0671,45.9714,yes,Yes,,,,,,,,
Dug Well,SWALIM_GSA,2018-04-01,Mudug,Galkacyo,Carfuda SH,Rasan,Community,20-06-05,6.6358,47.5965,No,Yes,,Community,22-06-05,,,,Well head decelopment,2005-06-30
Borehole,SWALIM_HGS,2012-01-09,Awdal,Borama,Dile,,,,9.76846,43.33587,,Yes,,,,,,,,
Borehole,FGS_MoEWR,2019-09-23,Hiraan,Belet Weyne,Harqaboobe,Harqaboobe,,17-08-17,5.155,45.3155,No,No,"Water shortage 
And pump is fire",Private/Individual,,,,,There is no any intervention,
Borehole,SCF,2005-02-22,Hiraan,Belet Weyne,Raage Farey,,,,4.4403,45.4187,,Yes,,,,,,,,
Dug Well,SWALIM_WSIS,2008-06-15,Togdheer,Burco,Ceelka Qudbiga,Qudbiga Xerta,,,8.9545,46.1775,Yes,Yes,,,,,,,,
Dug Well,SWALIM_WSIS,2009-07-25,Mudug,Galkacyo,Borehole,Carfuuda,,,6.588,47.6253,,Yes,,,,,,,,
Borehole,FGS_MoEWR,2019-09-23,Hiraan,Belet Weyne,Qabno,Qabno,Somalia Community Services,18-05-16,5.1429,45.4221,Yes,Yes,,Private/Individual,,0.05,,,"Water tank,motor and pump",2017-08-26
Borehole,SWALIM_GSA,2018-06-06,Lower Shabelle,Afgooye,Elasha biyaha1,Siinkadheer,GTZ - German Agency for Technical Assistance,01-01-79,2.0345,45.3074,Yes,Yes,,PPP,,,,,Generator supply,1995-01-01
Borehole,SWALIM_WSIS,2008-11-05,Togdheer,Burco,Kaasaar Village,,UNHABITAT - United Nations Human Settlements Programme,19-01-03,9.5844,45.5206,Yes,Yes,,Community,,,,,,
Borehole,FGS_MoEWR,2019-09-23,Hiraan,Belet Weyne,Coomaad,Coomaad,UNICEF - United Nations Children's Fund,20-04-10,5.0062,45.4721,Yes,Yes,,Private/Individual,,0.03,,,Water tank /stores,2017-06-11
Dug Well,BRCiS,2017-06-01,Mudug,Hobyo,Kalcad,Kalcad,,,6.4758,47.7598,,,,,,,,,,
Borehole,Puntland_PSAWEN,2013-12-28,Sanaag,Ceerigaabo,Awrbogays BH2,Awrbogays,SC-UK - Save the Children UK,01-02-10,9.57102,47.75414,Yes,No,,Public,,,,,Pump and pipe,2011-03-01
Dug Well,SWALIM_WSIS,2009-08-02,Galgaduud,Dhusa Marreb,Afweyne Bannaan,Gibin,,,5.6588,46.5518,,,,,,,,,,
Borehole,SWALIM_GSA,2018-01-03,Lower Shabelle,Afgooye,Tobanka Buundo BH,Tobanka Buundo,,01-01-13,2.3329,45.0508,,Yes,,Community,,,,,Full rehabilitation,
Dug Well,SWALIM_WSIS,2008-05-15,Togdheer,Burco,Beer 1,,,,9.3671,45.7584,Yes,Yes,,,,,,,,
Borehole,FGS_MoEWR,2019-10-08,Hiraan,Bulo Barde,Qasaxley,Indhacel,Former Somali Government,07-04-76,3.8589,45.5609,Yes,Yes,,Private/Individual,,0.04,,,Solar,2019-08-06
Dug Well,SWALIM_HGS,2012-02-23,Togdheer,Burco,Beer 3,,,,9.3686,45.7621,,Yes,,,,,,,,
Dug Well,SWALIM_WSIS,2008-05-15,Togdheer,Burco,Beer Burco Yar 1,Burco,,,9.3672,45.7622,Yes,Yes,,,,,,,,
Borehole,FGS_MoEWR,2019-10-08,Hiraan,Bulo Barde,Ceel Alasow,Horsed,Former Somali Government,14-12-69,3.8546,45.5681,Yes,Yes,,Private/Individual,,0.01,,,Currently Solar and construction of water tank,2019-10-09
Dug Well,SWALIM_WSIS,2008-06-16,Togdheer,Burco,Fiqiayuub,Fiqiayuub,,,9.9388,46.0236,Yes,Yes,,,,,,,,
Dug Well,SWALIM_HGS,2012-01-03,Togdheer,Burco,higlo,higlo village,,,9.0987,46.0864,,Yes,,,,,,,,2067-09-20
Dug Well,SWALIM_WSIS,2009-07-22,Mudug,Hobyo,Jilable,dhurre,,,6.4088,47.8447,,Yes,,,,,,,,
Borehole,FGS_MoEWR,2019-10-08,Hiraan,Bulo Barde,Ceelka Ameerikanka,Bagcabeeso,Former Somali Government,02-04-85,3.8465,45.5692,Yes,Yes,,Private/Individual,,0.001,,,Rehabilitataion,2013-04-02
Dug Well,SWALIM_WSIS,2008-05-15,Togdheer,Burco,Qoryaale Dug Well 7,Kirir,,,9.0694,45.9724,Yes,Yes,,,,,,,,
Borehole,ADRA,2004-06-10,Hiraan,Bulo Barde,Segaal Geed,Segaal Geed Village,Government of Somalia,01-01-87,3.8322,45.6758,Yes,Yes,,Community,,,,,,1998-01-01
Borehole,ADRA,2004-06-10,Hiraan,Bulo Barde,Aborey Borehole,Aborey Village,GTZ - German Agency for Technical Assistance,01-01-86,4.0167,45.6833,Yes,Yes,,Community,,,,,,1998-01-01
Borehole,WARDI,2011-08-06,Hiraan,Jalalaqsi,Bilaal,FIIDOW,ADRA - Adventist Development Relief Agency,26-08-00,3.382,45.493,Yes,Yes,,Community,,,,,,2000-08-26
Borehole,SWALIM_WSIS,2008-06-02,Sanaag,Laasqoray,Waciye BH2,,,,10.0215,49.0393,,,,,,,,,,
Borehole,FGS_MoEWR,2019-10-16,Lower Shabelle,Afgooye,Burdaan BH,Warmaxan,Community,15-06-17,2.3986,45.0167,Yes,Yes,,Private/Individual,,0.02,,,,
Borehole,SWALIM_HGS,2012-01-21,Sanaag,Ceerigaabo,Eubbee,Hadaftimo,,,10.7483,47.9233,,Yes,,,,,,,,2010-02-11
Borehole,SWALIM_WSIS,2008-07-06,Sanaag,Ceerigaabo,Ceel Buh BH1,Cerigabo,,,10.2378,48.3019,Yes,Yes,,Community,,,,,,
Borehole,Somaliland_MoWRD,2019-11-29,Awdal,borama,Afraag BH5,Cunaqabad,UNICEF - United Nations Children's Fund,03-08-17,9.9314,43.0772,Yes,No,"Since june 2017,there is no system but at this time the function on going",Communal,,,,,,
Borehole,Somaliland_MoWR,2014-01-04,Awdal,Lughaye,Geeriza,Geeriza,Manhal Relief Organization,01-06-11,10.6077,43.4341,Yes,Yes,,Public,,0.03,,,,
Borehole,Somaliland_MoWRD,2019-11-27,Awdal,Lughaye,Geerisa bore hole 1,Geerisa,Manhal Relief Organization,23-09-05,10.6078,43.4341,Yes,Yes,,Communal,23-07-09,0.2,,,Solor,2007-06-06
Dug Well,Somaliland_MoWRD,2019-09-27,Togdheer,Burco,Dug Well 4,Qoryale,Community, 9/27/1960,9.0679,45.9711,yes,Yes,,,,,,,,
Dug Well,SWALIM_WSIS,2008-07-05,Nugaal,Garoowe,Xananley,,,,8.5044,48.7572,Yes,Yes,,,,,,,,
Borehole,Somaliland_MoWRD,2019-11-27,Awdal,Lughaye,Geerisa bore hole 2,Geerisa,Kuwait Government,22-07-17,10.609,43.4342,No,Abandoned,Sagar prlom of the pump,Communal,22-11-04,,,,Pump rehabilitation the bore hole,2019-11-26
Borehole,Somaliland_MoWR,2014-01-04,Awdal,Lughaye,Karuure BH2,Karuure,Somaliland MoWR - Ministry of Water Resources ,01-06-09,10.75314,43.59,Yes,Yes,,Public,,0.03,,,,
Borehole,Somaliland_MoWRD,2019-12-02,Awdal,Lughaye,Karuura bore hole 2,Karuure,,01-07-19,10.7518,43.5918,Yes,Yes,,Communal,,,,,,
Borehole,Somaliland_MoWRD,2019-12-01,Awdal,Lughaye,Qubuurta x. Husen Bore hole,Qabriga x. Husen,Muslim Charity,27-06-14,10.6286,43.6127,Yes,Abandoned,The source is abdanoned the bore hole collebis cyclone sagar,Communal,02-04-14,,,,0,
Dug Well,SWALIM_GSA,2016-02-21,Mudug,Galkacyo,Rasan SH,Rasan,,,6.622,47.6377,,,,,,,,,,
Dug Well,COOPI,2012-12-12,Galgaduud,Dhusa Marreb,Faragoy 1,Faragoye,Community, 7/23/2011,5.472,46.5267,Yes,Yes,,,,,,,,2001-07-23
Dug Well,Somaliland_MoWRD,2019-10-30,Togdheer,Burco,Xayira Dug Well,Xayira,Community,10/30/1959,9.16,46.1135,yes,No,Poor technical and also high pressure elevation Tank.,,,,,,,
Dug Well,COOPI,2012-12-12,Galgaduud,Dhusa Marreb,Faragooy 3,Faragoye,Community, 9/26/2000,5.4722,46.5266,Yes,Yes,,,,,,,,2000-09-26
Dug Well,SWALIM_HGS,2011-12-11,Nugaal,Garoowe,Diriye 2,,,,8.3962,48.4784,,Yes,,,,,,,,2001-06-13
Borehole,Somaliland_MoWRD,2019-12-01,Awdal,Lughaye,Idiris bore hole,Idris,Concern Worldwide ,26-12-17,10.5586,43.6428,Yes,Yes,,Communal,04-12-18,0.12,,,Two gabyans,2019-12-02
Dug Well,SWALIM_WSIS,2008-06-01,Bari,Bossaso,Gub Sare,Laag,,,11.0375,49.1782,Yes,Yes,,,,,,,,
Borehole,Somaliland_MoWRD,2019-12-02,Awdal,Lughaye,Garaaca bore hole 1,Garaac,SC - Save the Children,24-04-19,10.6507,43.7641,No,Abandoned,Water is very salnty,Communal,,,,,It,
Dug Well,SWALIM_HGS,2012-01-03,Togdheer,Burco,Ulasan,Ulasan,,,9.0259,46.1861,,Yes,,,,,,,,2062-09-25
Borehole,Somaliland_MoWRD,2019-11-30,Awdal,Lughaye,Kalawla bore hole one,Kalowla,COOPI - Cooperazione Internazionale,17-02-95,10.5519,43.8516,Yes,Yes,,,,,,,,2001-06-12
Borehole,Somaliland_MoWR,2014-01-04,Awdal,Lughaye,Kalawle BH1,Kalawle,Former Somali Government,01-06-60,10.5519,43.8518,Yes,Yes,,Public,,0.3,,,"installation new pump, generator & cleaning of the borehole",2011-07-03
Dug Well,SWALIM_HGS,2012-02-23,Togdheer,Burco,Beer 4,,,,9.3687,45.7633,,Yes,,,,,,,,
Dug Well,SWALIM_HGS,2012-02-28,Togdheer,Burco,Karasharka/SHW003,,,,9.686944,45.44575,,Yes,,,,,,,,2009-11-23
Dug Well,Somaliland_MoWRD,2019-09-27,Togdheer,Burco,Dug Well 5,Qoryaale,Community, 4/21/1960,9.0677,45.9702,yes,Yes,,,,,,,,
Dug Well,Somaliland_MoWRD,2019-09-27,Togdheer,Burco,Qoryale Dug Well 1,Qoryale,Community, 5/23/2014,9.0671,45.971,yes,Yes,,,,,,,,
Dug Well,SWALIM_WSIS,2008-07-22,Mudug,Galkacyo,Hermo 1,Bacaadweyn,,,7.149,47.5179,Yes,Yes,,,,,,,,
Dug Well,SWALIM_HGS,2012-02-23,Togdheer,Burco,Beer Two/BUW006,,,,9.36725,45.761888,,Yes,,,,,,,,
Borehole,Puntland_PSAWEN,2013-12-29,Sanaag,Laasqoray,Dhahar new BH,Dhahar,Kuwait Government,01-11-13,9.7419,48.8105,Yes,Yes,,Public,,,,,,
Dug Well,SWALIM_HGS,2012-01-03,Mudug,Galkacyo,Gosol,,,,7.3966,47.9378,,Yes,,,,,,,,
Borehole,Somaliland_MoWRD,2019-09-26,Togdheer,Burco,Borehole 17,burco,UNICEF - United Nations Children's Fund,21-03-19,9.4864,45.5211,Yes,Yes,,Utility/Local Authority,,,,,,
Borehole,SWALIM_WSIS,2008-05-13,Togdheer,Burco,Yusuf Cali Qays,,,,9.5419,45.5212,Yes,Yes,,Private,,,,,,
Dug Well,SWALIM_WSIS,2008-08-03,Nugaal,Garoowe,Gtech,,,,8.4093,48.4759,Yes,Yes,,,,,,,,
Dug Well,COOPI,2012-12-15,Galgaduud,Dhusa Marreb,Afwayne 2,Afwayne 2,Community, 2/16/2001,5.6571,46.5525,Yes,Yes,,,,,,,,
Borehole,Somaliland_MoWRD,2019-10-14,Togdheer,Burco,Saleban kulul borehole 3,Burco,Private,14-10-18,9.5368,45.5213,Yes,Yes,,Private/Individual,,0.002,,,,
Borehole,Somaliland_MoWR,2014-01-04,Togdheer,Burco,Suleiman Kulul BH3,Suleiman Kulul Area,Suleiman Kulul (owner),01-06-04,9.5372,45.5219,Yes,Yes,,Private,,,,,,
Dug Well,SWALIM_WSIS,2009-08-04,Galgaduud,Dhusa Marreb,Inamid,Gadoon,,  1/2/1956,5.6483,46.6606,Yes,Yes,,,,,,,,
Borehole,Somaliland_MoWRD,2019-10-14,Togdheer,Burco,Saleeban kulul borehole 1,Burco,Private,14-10-05,9.537,45.522,Yes,Yes,,Private/Individual,,0.002,,,,
Borehole,Somaliland_MoWR,2014-01-03,Togdheer,Burco,GTZ BH1,Jamacada,GTZ - German Agency for Technical Assistance,01-06-78,9.5409,45.5221,Yes,Yes,,Public,,0.2,,,New Pump Installed,2013-11-01
Dug Well,SWALIM_WSIS,2009-08-12,Galgaduud,Dhusa Marreb,Maarsamage,Biyocaddo,,,5.6279,47.399,Yes,Yes,,,,,,,,
Borehole,Somaliland_MoWR,2014-01-04,Togdheer,Burco,Suleiman  Kulul BH1,Suleiman Kulul Area,Suleiman Kulul(owner),01-07-90,9.5371,45.5221,Yes,Yes,,Private,,,,,Pump Replacement,2013-06-01
Borehole,Somaliland_MoWR,2014-01-08,Togdheer,Burco,Guryasamo,Guryasamo,UAERC - United Arab Emirates Red Crescent,01-01-14,9.3624,45.522,No,No,,Public,,,,,,
Borehole,Somaliland_MoWRD,2019-10-14,Togdheer,Burco,Saleeban kulul 2,Saleeban kulul borehole 2,Private,14-10-06,9.5369,45.5223,Yes,Yes,,Private/Individual,,0.002,,,,
Dug Well,SWALIM_HGS,2011-12-21,Mudug,Galkacyo,Ba'adwein/HEW017,Heema,,,7.1498,47.5141,,Yes,,,,,,,,2005-04-12
Borehole,Somaliland_MoWR,2014-01-04,Togdheer,Burco,Suleiman Kulul BH2,Suleiman Kulul Borehole 2,Suleiman Kulul (owner),01-01-04,9.5369,45.5224,Yes,Yes,,Private,,,,,Pump Replacement,
Borehole,Somaliland_MoWR,2014-02-02,Togdheer,Burco,Orphanage,Mahamed Ali,GTZ - German Agency for Technical Assistance,01-06-80,9.5251,45.5234,No,Yes,,Public,,,,,,
Borehole,Somaliland_MoWRD,2019-11-04,Togdheer,Burco,Ewada Borehole,Burco,East Africa Welfare And Development Association,04-11-12,9.5084,45.5246,Yes,Yes,,Private/Individual,,0.002,,,,
Borehole,Somaliland_MoWR,2014-01-06,Togdheer,Burco,Muslim Charity Water,Manhal Area,Muslim Charity,01-05-12,9.5085,45.5248,Yes,Yes,,Private,,0.2,,,,
Dug Well,SWALIM_GSA,2016-02-14,Mudug,Galkacyo,CarfuudaSH,Carfuuda,,  8/8/1996,6.6356,47.5962,No,Yes,,,,,,,,
Dug Well,SWALIM_HGS,2011-12-21,Mudug,Galkacyo,Ba'adwein/HEW017,Heema,,,7.1498,47.51409,,Yes,,,,,,,,2005-04-12
Borehole,Somaliland_MoWRD,2019-09-26,Togdheer,Burco,Borehole 5,burco,DRC - Danish Refugee Council,26-07-04,9.5486,45.5423,Yes,Yes,,Utility/Local Authority,,0.012,,,Pump and the pipe,2018-05-21
Borehole,Somaliland_MoWRD,2019-11-11,Sool,Caynabo,Gadhka,Gadhka,Hargesia Voluntary Youth Committee,11-07-03,9.3079,46.3555,Yes,Yes,,Communal,,,,,,
Borehole,Somaliland_MoWR,2014-01-28,Sool,Caynabo,Wadamogoo BH1,Wadamogoo,Chinese Government,01-06-74,8.9309,46.2668,Yes,Yes,,Public,,,,,Extension of pipeline system to the town and repairing of troughs,2012-07-04
Borehole,Somaliland_MoWR,2014-01-07,Togdheer,Burco,Indha Deero,Ilays Factory Area,Indha Deer Company,01-11-04,9.53583,45.54249,Yes,Yes,,Private,,,,,,
Borehole,Somaliland_MoWRD,2019-10-12,Togdheer,Burco,Indha dero borehole,Burco,Community,12-10-07,9.5358,45.5425,Yes,Yes,,Private/Individual,,,,,,
Borehole,Somaliland_MoWR,2014-01-03,Togdheer,Burco,Buqleye BH1,Garbada,Kuwait Government,01-02-12,9.5186,45.5468,Yes,Yes,,Public,,0.2,,,,
Borehole,Somaliland_MoWR,2014-01-07,Togdheer,Burco,Jambaq  Farm,SH. Bashir,Jambaq (Owner ),,9.5323,45.5469,Yes,Yes,,Private,,,,,Pump Replacement,2013-02-01
Borehole,Somaliland_MoWRD,2019-10-10,Togdheer,Burco,Jambaq borehole,Burco,Community,10-10-12,9.5323,45.547,Yes,Yes,,Private/Individual,,,,,Pump and dynamo,2019-02-24
Dug Well,SWALIM_WSIS,2009-08-05,Galgaduud,Dhusa Marreb,Laas OOY,Gadoon,,  9/2/1977,5.7284,46.7093,Yes,Yes,,,,,,,,
Borehole,Somaliland_MoWRD,2019-09-25,Togdheer,Burco,Bodehole6,burco,Emirates,23-06-15,9.5185,45.5482,Yes,Yes,,Other,,0.002,,,Pump,2018-09-22
Borehole,SWALIM_WSIS,2008-11-05,Togdheer,Burco,Buqleye BH2,,Oxfam UK,18-07-04,9.5183,45.5482,Yes,Yes,,Other,,,,,,2004-07-18
Borehole,SWALIM_WSIS,2008-05-14,Togdheer,Burco,Saleebaan Kuul BH3,,,,9.5304,45.5392,,,,,,,,,,
Dug Well,SWALIM_WSIS,2008-07-22,Mudug,Galkacyo,Herma 2,Bacaadweyn,,,7.1498,47.5141,Yes,Yes,,,,,,,,
Borehole,Somaliland_MoWRD,2019-09-25,Togdheer,Burco,Borehole7,burco,Oxfam Novib,25-07-04,9.5187,45.5485,Yes,Yes,,Utility/Local Authority,,0.002,,,Pumb raysing pipe,2018-05-25
Borehole,Somaliland_MoWRD,2019-09-26,Togdheer,Burco,Borehole10,burco,Emirates,22-03-12,9.4962,45.5501,Yes,Yes,,Utility/Local Authority,,0.002,,,Pump pipe,2019-03-21
Dug Well,SWALIM_WSIS,2009-08-17,Galgaduud,Ceel Dheer,Ceel Macallin Dhiblawe,,,,3.8535,47.1787,,Yes,,,,,,,,
Borehole,Somaliland_MoWR,2014-01-04,Togdheer,Burco,Burco Water Agency BH10,October,UAERC - United Arab Emirates Red Crescent,01-09-11,9.4962,45.5503,Yes,Yes,,Private,,0.2,,,"Provided 1800 pipe line, Elevated Water Tank 100m3,5 Transfer stations, Submersible pump 22KW and 84KVA Generator",2012-09-01
Borehole,Somaliland_MoWRD,2019-10-10,Togdheer,Burco,Siilaanyo Borehole,Burco,Community,04-04-17,9.5186,45.5518,Yes,Yes,,Private/Individual,,,,,,
Dug Well,SWALIM Archives,2005-04-26,Awdal,Borama,HEG.W7,,Community,22-06-05,10.0667,43.3006,Yes,Yes,,,,,Yes,,,
Dug Well,SWALIM_WSIS,2009-08-04,Galgaduud,Dhusa Marreb,Galraydab,Higlaale,,,5.5534,46.5252,Yes,Yes,,,,,,,,
Dug Well,SWALIM_GSA,2018-04-01,Galgaduud,Dhusa Marreb,Faragoye SH,Higlale,ICRC - International Committee of The Red Cross,07-07-05,5.4714,46.5268,Yes,Yes,,Community,15-06-05,,,,,
Dug Well,SWALIM_WSIS,2009-08-14,Galgaduud,Dhusa Marreb,Godinlabe HDO1,Kongo IDP,,,5.8777,46.6327,,Yes,,,,,,,,
Dug Well,SWALIM_WSIS,2009-07-23,Mudug,Galkacyo,Qarsooni SH,Oman,,,6.5409,47.6619,,Yes,,,,,,,,
Dug Well,COOPI,2012-12-16,Galgaduud,Dhusa Marreb,Cirmar,Godinlabe,SWC, 3/15/2010,5.7891,46.6352,Yes,Yes,,,,,,,,2010-03-15
Dug Well,SWALIM_WSIS,2009-08-05,Galgaduud,Dhusa Marreb,Xundhurre,Dhalaamacane,,,5.7644,46.6452,Yes,Yes,,,,,,,,
Dug Well,COOPI,2012-12-12,Galgaduud,Dhusa Marreb,Gadon 2,Gadon,Community, 8/19/1974,5.6909,46.6756,Yes,Yes,,,,,,,,1974-08-19
Dug Well,COOPI,2012-12-12,Galgaduud,Dhusa Marreb,Gadon 1,Gadon,Community, 1/15/1980,5.6908,46.6757,No,No,,,,,,,,
Dug Well,SWALIM_WSIS,2009-08-05,Galgaduud,Dhusa Marreb,Gadoon HDO1,Laas OOY,,  1/2/1965,5.6915,46.6767,Yes,Yes,,,,,,,,
Dug Well,SWALIM_GSA,2018-03-01,Hiraan,Belet Weyne,Furqaan1,,,26-06-05,4.4357,45.1158,Yes,Yes,,Private,not clear,,,,,2005-07-09
Dug Well,SWALIM_GSA,2018-03-01,Hiraan,Belet Weyne,Sagal,,Community,06-06-05,4.4416,45.1212,Yes,Yes,,Private,not clear,,,,,
Dug Well,SWALIM_WSIS,2009-07-30,Mudug,Hobyo,Qarsoni 2,Colguula,,,5.8439,47.8588,,Yes,,,,,,,,
Dug Well,SWALIM_GSA,2018-03-01,Hiraan,Belet Weyne,Malele,,,28-06-05,4.441,45.1212,Yes,Yes,,Private,not clear,,,,,
Dug Well,SWALIM_GSA,2018-03-01,Hiraan,Belet Weyne,Caduun,,,,4.449,45.1217,Yes,Yes,,Private,not clear,,,,,
Dug Well,SWALIM_HGS,2012-01-02,Mudug,Galkacyo,Malaasle,Galkayo,,,6.8396,47.4215,,Yes,,,,,,,,1999-06-15
Dug Well,SWALIM_WSIS,2009-07-27,Mudug,Galkacyo,Galkalyo 2,Galkalyo,,,6.7638,47.434,,Yes,,,,,,,,
Dug Well,BRCiS,2017-06-01,Mudug,Galkacyo,El-Farah gedi,El-Farah gedi,,,6.6948,47.5235,,,,,,,,,,
Dug Well,SWALIM_WSIS,2009-07-28,Mudug,Hobyo,Torre,Birqodde,,,6.0203,47.7929,,Yes,,,,,,,,
Dug Well,SWALIM_GSA,2016-02-21,Mudug,Galkacyo,Farahgedi SH,Farahgedi,,,6.6948,47.5236,,,,,,,,,,
Dug Well,SWALIM_WSIS,2008-07-22,Mudug,Galkacyo,Margaaga 1,Bacaadweyn,,,7.2208,47.5344,Yes,Yes,,,,,,,,
Dug Well,SWALIM_HGS,2011-12-20,Mudug,Galkacyo,Ba'adwein/MAW014,Bacaadweyne,,,7.2203,47.535,,Yes,,,,,,,,2005-07-26
Dug Well,SWALIM_WSIS,2008-08-03,Nugaal,Garoowe,CEFA,,,,8.3954,48.4788,Yes,Yes,,,,,,,,
Dug Well,SWALIM_GSA,2018-04-01,Mudug,Galkacyo,Qarsooni SH,Dawaf,Community,20-06-05,6.5389,47.6634,No,Yes,,Community,,,,,Well head decelopment,2005-06-30
Dug Well,SWALIM_WSIS,2009-07-22,Mudug,Galkacyo,Dawaaf,oman,,,6.5764,47.6797,,Yes,,,,,,,,
Dug Well,SWALIM_WSIS,2009-07-23,Mudug,Galkacyo,Qarqora dheer,Bitale,,,6.7409,47.699,,Yes,,,,,,,,
Dug Well,SWALIM_HGS,2011-12-20,Mudug,Galkacyo,Ba'adwein/MAW014,Bacaadweyne,,,7.22028,47.535,,Yes,,,,,,,,2005-07-26
Dug Well,SWALIM_HGS,2012-01-02,Mudug,Galkacyo,Malaasle/HAW020,Galkayo,,,6.83962,47.42147,,Yes,,,,,,,,1999-06-15
Dug Well,BRCiS,2017-06-01,Mudug,Hobyo,Daqay,Daqay,,,5.8244,47.4572,,,,,,,,,,
Dug Well,SWALIM_GSA,2016-02-21,Mudug,Hobyo,DawafSH,Dawaf,, 2/21/1974,6.5265,47.6795,No,Yes,,,,,,,Construction the mouth of the Dug Well,
Dug Well,SWALIM_GSA,2018-04-01,Mudug,Hobyo,Dawaf SH,Docole Farale,Community,23-06-05,6.5264,47.6797,No,Yes,,Community,,,,,,
Dam,YME_GSA,2018-01-01,Lower Shabelle,Afgooye,B.Weyn WC,Buulo Weyn,,,2.1294,44.899,,,,,,,,,,
Borehole,Somaliland_MoWR,2014-01-28,Sool,Caynabo,Wadamogoo BH2,Wadomogoo,IR - Islamic Relief Somalia,01-06-13,8.931,46.2669,Yes,No,,Public,,,,,,
Borehole,Somaliland_MoWRD,2019-12-06,Awdal,Borama,Dhagaxa madow,Dhagaxa madow,Saudi Government,29-01-16,10.2644,43.1986,Yes,Yes,,Communal,,,,,,
Dug Well,SWALIM_GSA,2016-02-17,Mudug,Hobyo,Bajeela SH,Bajeela,, 2/17/1989,5.7855,47.7024,No,Yes,,,,,,,,
Borehole,Somaliland_MoWRD,2019-11-30,Awdal,Borama,New Dhamuug BH8,Amoud,Turkish Government,03-09-14,9.9512,43.2197,Yes,Yes,,Communal,,0.22,,,,
Borehole,SWALIM_WSIS,2008-06-22,Togdheer,Buhoodle,Dandan,Dan Dan,,,8.4401,46.8387,Yes,Yes,,Community,,,,,,
Dug Well,SWALIM_GSA,2018-04-01,Mudug,Hobyo,Omane SH,Qarsooni,Community,09-06-05,6.5597,47.6868,No,Yes,,Community,,,,,,
Borehole,Somaliland_MoWRD,2019-12-02,Awdal,Borama,Agoomaha BH3,Qoorgab,,06-05-11,9.9388,43.2015,Yes,Yes,,Private/Individual,,,,,,
Borehole,Somaliland_MoWR,2014-01-08,Awdal,Borama,Dhamuug BH15,Boorame,Kuwait Government,28-09-13,9.9094,43.20166,No,No,,Public,,0.07,,,,
Dug Well,SWALIM_WSIS,2009-07-23,Mudug,Hobyo,Ooman,Qersome,,,6.5597,47.6867,,Yes,,,,,,,,
Borehole,SWALIM_HGS,2012-01-20,Awdal,Zeylac,jidhi,,,,10.62525,43.07182,,Yes,,,,,,,,
Borehole,Somaliland_MoWRD,2019-12-02,Awdal,Borama,Shaylaha BH2,Shaylaha,Kuwait Government,04-07-13,9.9094,43.2017,Yes,Yes,,Communal,,0.22,,,,
Dug Well,BRCiS,2017-06-01,Mudug,Hobyo,Jilable,Jilable,,,6.4088,47.8446,,,,,,,,,,
Borehole,Somaliland_MoWRD,2019-12-02,Awdal,Borama,Shaylaha BH15,Shaylaha,Kuwait Government,04-06-13,9.909,43.2027,Yes,Abandoned,"Since july 2017,at this borehole water dry",Communal,,,,,,
Borehole,Somaliland_MoWR,2014-01-12,Awdal,Borama,Dhamuug BH14,Boorama,IR - Islamic Relief Somalia,01-06-13,9.9376,43.222,,No,,Public,,,,,,
Borehole,Somaliland_MoWR,2014-01-08,Awdal,Borama,Amoud University,Boorama,European Union,01-06-10,9.9437,43.22,Yes,Yes,,Public,,,,,,
Borehole,Somaliland_MoWRD,2019-12-03,Awdal,Borama,Qoorgaab,Qorgaab,,,9.9415,43.2064,Yes,Yes,,Private/Individual,,,,,,
Dug Well,SWALIM_GSA,2016-02-25,Mudug,Xarardheere,Dumaye SH,Dumaye,,,4.8674,47.6185,,,,,,,,,,
Borehole,Puntland_PSAWEN,2014-01-16,Bari,Bossaso,Ceeldaahir BH2,Ceeldaahir,Kuwait Government,01-06-13,10.6125,49.0492,Yes,No,,Public,,,,,,
Borehole,Somaliland_MoWRD,2019-12-01,Awdal,Borama,Al xayaat hospital,Alxayaat,Private,03-07-11,9.9375,43.2088,Yes,Yes,,Private/Individual,,,,,,
Borehole,SWALIM_WSIS,2008-05-27,Awdal,Borama,ARC BH2,Boorame Town,,,9.939,43.2115,,Abandoned,,,,,,,,
Borehole,Somaliland_MoWRD,2019-12-01,Awdal,Borama,Dhamuug BH3,Dhamuug,Chinese Government,03-06-86,9.9504,43.216,Yes,Abandoned,"Since july 2005,this borehole water dry",Communal,,,,,,
Borehole,Somaliland_MoWRD,2019-12-01,Awdal,Borama,Dhamuug BH1,Dhamuug,Chinese Government,03-07-86,9.9512,43.2164,Yes,Yes,,Private,,0.03,,,,
Borehole,Somaliland_MoWR,2014-01-11,Awdal,Borama,Dhamuug BH2,Boorama,Chinese Government,01-06-88,9.951,43.2173,Yes,Yes,,Communal,,,,,,
Borehole,Somaliland_MoWRD,2019-12-01,Awdal,Borama,Shifo BH1,Daremacaane,Oxfam GB,16-05-85,9.9706,43.2182,Yes,Yes,,Private/Individual,,,,,,
Borehole,Somaliland_MoWR,2014-01-11,Awdal,Borama,Dhamuug BH4,Boorama,Chinese Government,01-06-88,9.94936,43.21974,Yes,Yes,,Communal,,,,,No intervention,
Dug Well,SWALIM_WSIS,2008-06-16,Bari,Iskushuban,Ex Baargaal,Baargaal,,,11.2957,51.077,,,,,,,,,,
Borehole,Somaliland_MoWRD,2019-12-01,Awdal,Borama,Dhamuug BH5,Amoud,Chinese Government,15-04-87,9.9495,43.2197,Yes,Abandoned,"Since july 2009,this borehole dry water",Public,,0.03,,,,
Borehole,Somaliland_MoWR,2014-01-11,Awdal,Borama,Dhamuug BH6,Boorama,,01-06-88,9.9494,43.2197,No,No,,Public,,,,,,
Dug Well,SWALIM_WSIS,2009-07-28,Mudug,Hobyo,Biriqoddey,Galqurran,,,6.0549,47.7137,,Yes,,,,,,,,
Dug Well,SWALIM_WSIS,2009-01-09,Mudug,Hobyo,Bajeela,,,,5.7855,47.7023,,Yes,,,,,,,,
Dug Well,SWALIM_WSIS,2009-07-22,Mudug,Hobyo,Kalcad,Jilable,,,6.4757,47.7596,,Yes,,,,,,,,
Dug Well,SWALIM_GSA,2016-02-14,Mudug,Hobyo,Jilable SH,Jilable,, 2/14/2008,6.4102,47.8413,No,Yes,,,,,,,,
Borehole,Somaliland_MoWRD,2019-11-30,Awdal,Borama,Old dhamuug BH8,Amoud,Chinese Government,03-07-86,9.9511,43.2197,Yes,Abandoned,"Since may 2014,this borehole water dry",Private/Individual,,,,,,
Borehole,Somaliland_MoWRD,2019-12-01,Awdal,Borama,Shifo BH2,Daremacane,Private,19-04-96,9.9695,43.2197,Yes,Yes,,Private/Individual,,,,,,
Borehole,Somaliland_MoWR,2014-01-11,Awdal,Borama,Dhamuug BH8,Boorama,Chinese Government,01-06-88,9.9511,43.2198,Yes,Yes,,Public,,0.03,,,,
Borehole,Somaliland_MoWRD,2019-12-01,Awdal,Borama,Amoud university  BH,Amoud,Private,03-08-00,9.9438,43.22,Yes,Yes,,Private/Individual,,,,,,
Borehole,Somaliland_MoWR,2014-01-25,Woqooyi Galbeed,Hargeisa,Maxamed Away Axmed BH2,Darasalaam,Private,01-06-82,9.8193,44.011,No,No,,Private,,,,,,
Borehole,Somaliland_MoWRD,2019-11-30,Awdal,Borama,Dhamuug BH19,Amoud,Kuwait Government,03-08-16,9.95,43.2227,Yes,Yes,,Communal,,0.22,,,,
Dug Well,SWALIM_WSIS,2008-12-05,Awdal,Lughaye,Beeyoliibaan,Lughaye,,,10.668,43.892,Yes,Yes,,,,,,,,
Borehole,Somaliland_MoWR,2014-01-08,Awdal,Borama,Amoud,Amoud ,Private,,9.9474,43.2244,Yes,Yes,,Private,,0.07,,,,
Dug Well,SWALIM_GSA,2016-02-17,Mudug,Hobyo,Qarsooni SH,Qarsooni,, 2/17/1995,5.8442,47.8587,No,Yes,,,,,,,,
Dug Well,FGS_MoEWR,2019-09-21,Mudug,Hobyo,Qarsuni ShW,Qarsuni,Community, 1/19/2009,5.8442,47.8584,yes,Yes,,,,,,,,
Borehole,FGS Ministry of Energy and Water Resources,2022-04-19,Bakool,tayeeglow,Biyooley 2,Tieglow,Community,,3.9375,44.3409,no,Abandoned,,Communal,,2,,,,
Borehole,Somaliland_MoWRD,2019-12-01,Awdal,Borama,Agoomaha BH1,Amoud,,03-08-15,9.9524,43.2255,Yes,Yes,,Private/Individual,,,,,,
Borehole,Somaliland_MoWRD,2019-11-30,Awdal,Borama,"Dhamuug BH7
",Amoud,Chinese Government,03-11-86,9.9473,43.2245,Yes,Yes,,Communal,,0.21,,,,
Borehole,Somaliland_MoWRD,2019-12-01,Awdal,Borama,Agoomaha BH2,Amoud,,03-09-17,9.9548,43.2251,Yes,No,"Since july 2017,it's not opened when the completed test",Private/Individual,,,,,,
Borehole,Somaliland_MoWRD,2019-12-03,Awdal,Borama,Agoomaha BH5,Amoud,,04-05-17,9.9405,43.2255,Yes,Yes,,Private/Individual,,,,,,
Borehole,Somaliland_MoWR,2014-01-05,Awdal,Zeylac,Ceelgaal BH2,Ceelgaal,Djibouti,01-06-11,10.9899,43.4427,No,No,,Public,,,,,,
Borehole,SWALIM_GSA,2018-06-06,Lower Shabelle,Afgooye,Jaamacadda Beeraha,Carbiska,Private,01-01-08,2.1071,45.1549,Yes,Yes,,Community,,,,,,
Dug Well,BRCiS,2017-06-01,Mudug,Hobyo,Ooman,Ooman,,,6.5598,47.6867,,,,,,,,,,
Dug Well,FGS_MoEWR,2019-09-17,Mudug,Hobyo,Jillable Dug Well,Jillable,Community,11/21/2005,6.4102,47.8414,yes,Yes,,, 2/22/2005,,,,Cleaning and deepening,2011-02-28
Dug Well,SWALIM_GSA,2018-04-01,Mudug,Hobyo,Jilable SH,Dejimaale,Community,11-05-05,6.4092,47.8434,Yes,Yes,,Community,02-07-05,,,,Well head decelopment,2005-07-02
Dug Well,SWALIM_GSA,2016-02-17,Mudug,Hobyo,Elguula SH,Ceelguula,, 2/17/2002,6.008,47.8547,No,Yes,,,,,,,,
Dug Well,SWALIM_WSIS,2009-07-30,Mudug,Hobyo,Colguula,Wargallo,,,6.0077,47.8559,,Yes,,,,,,,,
Dug Well,SWALIM_WSIS,2008-07-08,Nugaal,Garoowe,Xamur 1,Xamur,,,8.723,48.7447,Yes,Yes,,,,,,,,
Dug Well,SWALIM_WSIS,2009-08-30,Mudug,Hobyo,Colguulla,Wargalco,NRC - Norwegian Refugee Council,12/17/2007,6.0115,47.8565,,Yes,,,,,,,,2008-11-17
Dug Well,SWALIM_WSIS,2009-07-30,Mudug,Hobyo,Dabaqalooc,Sarsoniz,,,5.7113,47.8567,,Yes,,,,,,,,
Dug Well,SWALIM_GSA,2018-04-01,Mudug,Hobyo,Qarsooni SH,Ceelguule,Community,18-06-05,5.8442,47.8587,No,Yes,,Community,,,,,,
Dug Well,SWALIM_WSIS,2009-01-08,Mudug,Hobyo,Nageye,,,,5.6256,47.9013,,Yes,,,,,,,,
Dug Well,SWALIM_GSA,2016-02-24,Mudug,Xarardheere,Ceel Huur SH,Ceel Huur,,,5.0028,48.2621,,,,,,,,,,
Dug Well,SWALIM_GSA,2018-04-01,Mudug,Hobyo,,Bacadweyn,Private,03-07-05,5.2688,47.9113,Yes,Yes,,Private,,,,,"Construction of elevated water tank, generator room and store room and generator and pump supply",2005-07-04
Dug Well,SWALIM_GSA,2016-01-31,Mudug,Hobyo,Camaara SH,Bacadweyne,, 3/24/2012,5.2687,47.9113,Yes,Yes,,,,,,,Constructed Water tank and generator room,2005-07-05
Borehole,SWALIM_HGS,2012-02-24,Togdheer,Burco,Salebankulul/BUB015,,,,9.536888,45.522416,,Yes,,,,,,,,
Borehole,SWALIM_HGS,2012-02-24,Togdheer,Burco,Salebankulul/BUB016,,,,9.538138,45.478888,,Yes,,,,,,,,2010-06-29
Dug Well,SWALIM_GSA,2016-02-15,Mudug,Hobyo,Cadale SH,Garwaale,Community, 9/11/2005,6.0227,48.5085,No,Yes,,,,,,,,
Borehole,Somaliland_MoWRD,2019-12-03,Awdal,Borama,Mohamed caduur yusuf,Amoud,Private,15-09-18,9.9527,43.2274,Yes,No,"Since October 2018,there's no solar system and generator",Private/Individual,,,,,,
Dug Well,SWALIM_WSIS,2008-06-18,Togdheer,Burco,Ceeg,Ceeg,,,8.9984,45.3597,Yes,Yes,,,,,,,,
Borehole,Somaliland_MoWRD,2019-11-30,Awdal,Borama,Hussien hadi BH,Amoud,Chinese Government,03-12-87,9.995,43.2288,Yes,Yes,,Private/Individual,,,,,,
Borehole,FGS_MoEWR,2019-03-06,Banadir,Bondhere,Wasaarada boostada,Yusuf al kowneyn,FGS MoEWR - Ministry of Energy and Water Resources,06-05-79,2.0404,45.3468,No,No,,Public,,0,,,,
Borehole,Somaliland_MoWRD,2019-11-30,Awdal,Borama,Dahir rayaale kaahin,Amoud,Private,20-07-12,9.9481,43.2297,Yes,No,"Since April 2019,this borehole the water stary",Private/Individual,,,,,,
Borehole,Somaliland_MoWRD,2019-11-30,Awdal,Borama,Barkhad aadan jamac,Amoud,Private,19-05-09,9.9474,43.2307,Yes,No,"Since june 2009,when the completed test it's not used",Private/Individual,,,,,,
Dug Well,SWALIM_WSIS,2008-05-29,Bari,Bossaso,Shanle,,,  1/9/1998,11.2768,49.1817,Yes,Yes,,,,,,,,
Borehole,SWALIM_HGS,2012-01-12,Awdal,Borama,Bor; B_041,,,,9.92861,43.2457,,Yes,,,,,,,,
Borehole,Somaliland_MoWRD,2019-11-30,Awdal,Borama,Mixile BH,Amoud,Private,30-07-17,9.9527,43.2328,Yes,Yes,,Private/Individual,,,,,,
Dug Well,SWALIM_WSIS,2008-06-03,Sanaag,Ceerigaabo,Daallo Waro,Ceerigaabo,,,10.7557,47.2991,Yes,Yes,,,,,,,,
Borehole,FGS_MoEWR,2019-01-01,Banadir,Hodan,Gorgor,Waaxda october,DBG - Diakonie Emergency Aid Bread for the World,01-01-05,2.0412,45.3124,No,No,,Private,,1.3,,,,
Borehole,Somaliland_MoWRD,2019-11-30,Awdal,Borama,Dhamuug BH 22,Amoud,UNICEF - United Nations Children's Fund,03-09-18,9.9493,43.2341,Yes,Yes,,Communal,,,,,,
Borehole,FGS_MoEWR,2018-12-30,Banadir,Yaaqshiid,Ceelka Eng. Abukar,Horseed,Private,30-12-18,2.0327,45.3168,Yes,Yes,,Private,,,,,,
Borehole,Somaliland_MoWRD,2019-11-30,Awdal,Borama,Dhamuug BH 21,Amoud,UNICEF - United Nations Children's Fund,03-05-17,9.9494,43.2341,Yes,Yes,,Communal,,,,,,
Borehole,SWALIM_WSIS,2008-05-13,Sool,Laas Caanood,Goojacade BH5,Las anod,,,8.5142,47.4,No,No,,Community,,,,,,
Dug Well,FGS Ministry of Energy and Water Resources,2022-03-21,Gedo,belet_xaawo,Ceel macaan,Malkariyey,Norwegian Church Aid,21/03/2022,3.97994,41.9067,yes,Yes,,Private/Individual,,5,,,21-Mar-22,Construction of animal trough 
Borehole,Somaliland_MoWRD,2019-12-06,Awdal,Borama,Weeraar,Weeraar,Community,25-05-12,10.2513,43.2347,Yes,Yes,,Private/Individual,,,,,,
Dug Well,SWALIM_GSA,2018-04-01,Mudug,Hobyo,Hawlwadag SH2,Midnimo,Community,28-05-05,5.3506,48.525,No,Yes,,,,,,,,
Borehole,Somaliland_MoWRD,2019-11-30,Awdal,Borama,Dhamuug BH 20,Amoud,Turkish Government,30-11-17,9.9432,43.2379,Yes,Yes,,Communal,,0.22,,,,
Borehole,Somaliland_MoWR,2014-01-08,Awdal,Borama,Dhamuug BH13,Boorama,ICRC - International Committee of The Red Cross,01-06-10,9.9286,43.2457,Yes,Yes,,Public,,0.07,,,,
Borehole,SWALIM_HGS,2012-01-25,Togdheer,Buhoodle,Qararrooyin,,,,8.22,46.356,,Yes,,,,,,,,
Dug Well,SWALIM_HGS,2012-01-21,Nugaal,Eyl,Bedey 3,,,,7.963,49.8439,,Yes,,,,,,,,2030-04-29
Borehole,ADRA,2004-06-17,Bakool,Xudur,Hudur 2 BH,Hudur Town,Government,,4.13,43.8889,Yes,Yes,,Community,,,,,,2003-01-01
Borehole,Somaliland_MoWRD,2019-12-14,Awdal,Zeylac,Ceelgaal2,Ceelgal,Former Somali Government,15-12-78,10.9757,43.4383,Yes,Yes,,Utility/Local Authority,,0.005,,,New storage,2019-05-15
Dam,YME_GSA,2018-01-03,Lower Shabelle,Afgooye,Banyaal WC,Banyaal,,11-06-05,2.4543,45.1418,,Yes,,,,,,,,
Borehole,SWALIM_HGS,2012-01-20,Awdal,Zeylac,Ceel-Gaac,,,,10.84678,43.26206,,Yes,,,,,,,,
Dug Well,SWALIM_HGS,2011-12-11,Nugaal,Garoowe,Diriye/HORMUD IDP,,,,8.3909,48.4792,,Yes,,,,,,,,2011-06-28
Dug Well,SWALIM_HGS,2012-01-16,Mudug,Jariban,Jariiban 2,,,,7.2195,48.846,,Yes,,,,,,,,
Borehole,SWALIM_HGS,2012-01-20,Awdal,Zeylac,laagta morohda,,,,10.98989,43.44266,,Yes,,Public,,0.03,,,,
Borehole,SWALIM_HGS,2012-01-21,Awdal,Zeylac,takhushi,,,,11.26572,43.30127,,Yes,,,,,,,,
Borehole,FGS_MoEWR,2018-12-30,Banadir,Heliwa,Majabshe,,,,2.0728,45.3664,,No,,,,,,,,
Borehole,FGS_MoEWR,2019-01-01,Banadir,Hodan,Galaal,Waaxda Axmed guray,Private,01-06-76,2.0366,45.3173,Yes,Yes,,Private,,1,,,,
Borehole,FGS_MoEWR,2019-01-02,Banadir,Waberi,Ceelka saalax,WaaxdaHanti wadaag,UNICEF - United Nations Children's Fund,30-06-58,2.0335,45.3265,No,No,,Public-Private,,1.3,,,,
Borehole,FGS_MoEWR,2019-01-01,Banadir,Warta Nabada,Ceelka Kheyr qabe water supply,"Waaxda 2aad, Hantiwadaag",FGS MoEWR - Ministry of Energy and Water Resources,01-01-09,2.0479,45.3279,Yes,Yes,,Private,,,,,,
Borehole,FGS_MoEWR,2018-12-30,Banadir,Yaaqshiid,Shucayb,Horseed,Private,24-05-09,2.0611,45.3391,Yes,Yes,,Private,,1,,,,
Borehole,FGS_MoEWR,2019-01-06,Banadir,Yaaqshiid,Shirkadda Horumarinta Biyaha Xamar,Waaxda Tawakal,Private,30-08-17,2.0915,45.3451,Yes,Yes,,Private,,1.2,,,,
Borehole,ADRA,2004-09-06,Bakool,Ceel Barde,ELBerde BH/Yard,ELBerde Town,Government,01-01-77,4.825,43.6608,Yes,Yes,,Community,,,,,,2001-01-01
Dug Well,SWALIM_GSA,2018-04-01,Mudug,Hobyo,Wadajir SH2,Hawlwadag,Community,21-06-05,5.3552,48.5272,No,Yes,,Community,,,,,,
Dug Well,SWALIM_WSIS,2008-08-03,Nugaal,Garoowe,Garowe 6 DW,,,,8.4119,48.4947,Yes,Yes,,,,,,,,
Borehole,Puntland_PSAWEN,2014-01-16,Bari,Bossaso,Bilcil Hospital,Armo,UNICEF - United Nations Children's Fund,01-06-02,10.5571,49.0584,Yes,Yes,,Public,,0.25,,,Pump and pipes,2011-12-01
Borehole,FGS_MoEWR,2019-09-22,Bakool,Xudur,Buruya,Buruya,Indian Government,13-05-83,4.12931,43.88828,Yes,Yes,,Communal,23-06-18,0.04,,,"32 pannel Solar installation,  fence,  2 kiosks.",2017-04-18
Borehole,Somaliland_MoWR,2014-02-02,Togdheer,Sheikh,Geeloo Kor,Geeloo kor,COOPI - Cooperazione Internazionale,01-06-00,10.1364,45.1824,Yes,Yes,,Public,,,,,,
Dug Well,SWALIM_WSIS,2008-05-31,Sanaag,Ceerigaabo,Xabow Dug Well 1,Xadhaadh,,,10.6692,47.5052,Yes,Yes,,,,,,,,
Borehole,SWALIM_GSA,2018-06-06,Bakool,Xudur,Buryaale BH,Dayuuro,,01-01-94,4.1293,43.8883,Yes,Yes,,Community,,,,,,
Dug Well,SWALIM_WSIS,2008-07-21,Nugaal,Eyl,Badey,Badey,ADRA - Adventist Development Relief Agency, 3/12/2002,7.9628,49.8431,Yes,Yes,,,,,,,,
Dug Well,SWALIM_WSIS,2009-03-09,Mudug,Hobyo,Buwgarasley,Ceeldibir,,,5.9318,48.3567,,Yes,,,,,,,,
Borehole,Puntland_PSAWEN,2014-01-05,Bari,Bossaso,Dr. Ahmed Ali Ahmed,Balade,Dr. Ahmed,01-06-13,11.232,49.1909,Yes,No,,Private,,,,,,
Dug Well,SWALIM_GSA,2018-04-01,Mudug,Hobyo,Ceeldibir SH2,Xerodhegaxley,Community,03-05-05,5.8864,48.3445,Yes,Yes,,Community,23-06-05,,,,,
Dug Well,SWALIM_WSIS,2009-03-09,Mudug,Hobyo,Ceeldibir,,,,5.8863,48.3445,,Yes,,,,,,,,
Borehole,FGS_MoEWR,2019-09-22,Bakool,Xudur,Sheikh Aways,Sheekh Aways,ICRC - International Committee of The Red Cross,01-07-19,4.1199,43.8941,Yes,Yes,,Communal,23-06-18,0.05,,,,
Dug Well,SWALIM_WSIS,2008-07-30,Mudug,Jariban,Ceel Gaws,Jariiban,,,7.212,48.8507,Yes,Yes,,,,,,,,
Borehole,SWALIM_GSA,2018-06-06,Bakool,Xudur,Bulajadiid BH,Buula Jadiid,Former Somali Government,01-01-82,4.1208,43.8964,No,No,,Community,,,,,,
Dug Well,SWALIM_WSIS,2009-08-23,Bay,Bur Hakaba,Yaaq,Bulo Bacaad,,,2.6238,44.1881,Yes,Yes,,,,,,,,
Borehole,ADRA,2004-06-09,Bakool,Xudur,Hudur 1 BH,Hudur Town,UNDP - United Nations Development Programme,01-01-94,4.1233,43.9,Yes,Yes,,Community,,,,,,2002-01-01
Dug Well,SWALIM_WSIS,2008-07-04,Nugaal,Garoowe,Garowe 16,,,,8.4054,48.4896,Yes,Yes,,,,,,,,
Borehole,SWALIM_GSA,2017-05-20,Bakool,Xudur,Karkoor BH,Karkoor,,,3.9375,44.0682,Yes,Yes,,Community,,,,,,
Dug Well,SWALIM_WSIS,2008-08-03,Nugaal,Garoowe,Garowe Hospital,,,,8.407,48.4771,Yes,Yes,,,,,,,,
Borehole,SWALIM_WSIS,2009-07-27,Bakool,Xudur,Ceel Garas 2,,,,4.1458,44.2045,,,,Community,,,,,,2002-01-28
Borehole,SWALIM_GSA,2018-06-06,Bakool,Xudur,Ceel Garas BH,Ceel Garas,,,4.1458,44.2046,Yes,Yes,,Community,,,,,,
Borehole,SWALIM_WSIS,2009-07-25,Bakool,Xudur,Wasiile BH,,,25-01-74,3.9792,44.25,Yes,Yes,,Community,,,,,,2007-01-25
Borehole,ADRA,2004-06-17,Bakool,Yeed,BurDhunle BH,,Government,01-01-74,4.0567,43.25,Yes,Yes,,Community,,,,,,2003-01-01
Borehole,SWALIM_GSA,2018-06-06,Bakool,Yeed,Burdhuxunle BH,Rabdhuure,Community,,4.0625,43.2501,Yes,Yes,,Community,,,,,,
Dug Well,SWALIM_GSA,2018-04-01,Mudug,Hobyo,Cadale SH,Ceeldibir,Community,04-07-05,6.0178,48.5154,No,Yes,,Community,04-07-05,,,,,
Borehole,Puntland_PWDA,2019-11-20,Bari,Bandar Beyla,Baqbaq,Baqbaq,ICRC - International Committee of The Red Cross,20-08-17,8.6931,50.0613,Yes,Yes,,Communal,19-08-17,0.026,,,,
Borehole,Puntland_PWDA,2019-11-07,Bari,Bossaso,Qaw2,Qaw,Kuwait Government,03-07-12,11.2091,48.9855,Yes,Yes,,Communal,03-07-12,0.026,,,,2019-11-07
Dug Well,SWALIM_GSA,2018-04-01,Mudug,Hobyo,Midnimo SH1,Hawlwadag,Community,14-06-05,5.3469,48.5277,No,Yes,,Community,,,,,Rehabilitation,2005-07-10
Borehole,Somaliland_MoWRD,2019-09-29,Woqooyi Galbeed,Gebiley,Baxsane bh,Huluuq,Private,24-09-84,9.6765,43.7829,Yes,Yes,,Private/Individual,,0.05,,,Rehabilitation of tank,2008-10-01
Borehole,Puntland_PWDA,2019-11-07,Bari,Bossaso,Qaw1,Qaw,Kuwait Government,04-08-12,11.2097,48.9874,Yes,Yes,,Communal,03-05-12,0.026,,,GI Class C. Pump 7.5,2018-07-03
Borehole,Puntland_PSAWEN,2014-01-11,Bari,Bossaso,Almacruf Supper Market,Balade,Al Macruuf company,01-06-10,11.2579,49.1886,Yes,Yes,,Private,,0.25,,,,
Borehole,FGS_MoEWR,2019-09-14,Bay,Baydhaba,Wakalada Borehole,Isha,Warjanay company,14-03-16,3.1159,43.6471,Yes,Yes,,Private/Individual,,0.1,,,Installation of submersible pumb 15HP,2016-09-14
Borehole,Somaliland_MoWR,2014-02-03,Woqooyi Galbeed,Berbera,Faradero BH8,Fradeero,Korea Government,01-06-95,10.2401,45.0854,No,No,,Public,,,,,,
Dug Well,SWALIM_WSIS,2009-03-09,Mudug,Hobyo,Ceelsheikhm. Samantar,Ceeldibir,,,5.8571,48.3431,,Yes,,,,,,,,
Dug Well,SWALIM_GSA,2016-02-15,Mudug,Hobyo,Ceeldibir SH,Ceeldibir,, 9/15/2010,5.892,48.3477,No,Yes,,,,,,,,
Dug Well,SWALIM_WSIS,2008-07-29,Mudug,Jariban,Bur Laag,Gara Cad,,,6.9512,49.3317,Yes,Yes,,,,,,,,
Dug Well,SWALIM_GSA,2018-04-01,Mudug,Hobyo,Ceeldibir SH1,Xerodhegaxley,GSA - General Service Agency,30-06-05,5.8988,48.3539,No,No,Tech Breakdown,Community,23-06-05,,,,,
Dug Well,SWALIM_GSA,2016-02-15,Mudug,Hobyo,BudbudSH,Budbud,Community,12-11-15,6.1811,48.6873,No,Yes,,,,,,,,
Dug Well,SWALIM_WSIS,2008-08-03,Nugaal,Garoowe,Mosque 2,,,,8.4032,48.4807,Yes,Yes,,,,,,,,
Dug Well,SWALIM_WSIS,2008-06-01,Awdal,Baki,Xoorey 2,Xoorey Town,,,10.1778,43.3669,,,,,,,,,,
Dug Well,SWALIM_GSA,2016-02-15,Mudug,Hobyo,Ceeldibir SH1,Ceeldibir,GSA - General Service Agency, 8/15/2009,5.8988,48.354,No,No,,,,,,,Constructed the head of the Dug Well as vencing and also provided a pump 4hp .,2005-07-06
Dug Well,FGS_MoEWR,2019-09-18,Mudug,Hobyo,Garawale Dug Well,Garawale,Community, 4/20/2012,6.0692,48.3961,yes,Yes,,,11/22/2018,,,,Portable generators and cleaning,2019-02-23
Dug Well,YME_GSA,2015-02-15,Mudug,Hobyo,FaataxaruugSH,Garwaale,Community, 9/10/2013,6.1287,48.4154,No,Yes,,,,,,,,
Dug Well,BRCiS,2017-06-01,Mudug,Hobyo,Elduale,Elduale,,,5.4395,48.4264,,,,,,,,,,
Dug Well,SWALIM_GSA,2016-02-15,Mudug,Hobyo,Xingod SH,Xingod,Community, 8/11/2012,6.2598,48.4349,No,Yes,,,,,,,,
Dug Well,FGS_MoEWR,2019-09-17,Mudug,Hobyo,Hingod Dug Well,Hingod,Community,11/14/2009,6.2598,48.435,yes,Yes,,,  2/8/2005,,,,Cleaning and hygiene,2016-02-22
Dug Well,SWALIM_WSIS,2009-04-09,Mudug,Hobyo,Ribaad,Saqiiro,,  2/2/2006,5.2951,48.4493,,Yes,,,,,,,,2006-02-02
Dug Well,SWALIM_WSIS,2008-07-28,Mudug,Jariban,GaraCad,Kulub,,,6.944,49.3253,Yes,Yes,,,,,,,,
Dug Well,SWALIM_GSA,2018-04-01,Mudug,Hobyo,Hawlwadag SH1,Midnimo,Community,15-06-05,5.3503,48.5258,No,Yes,,,,,,,HP installation,2005-07-05
Dug Well,SWALIM_GSA,2018-04-01,Mudug,Hobyo,Wadajir SH3,Hawlwadag,Community,02-06-05,5.3557,48.5272,No,Yes,,Community,,,,,,
Dug Well,SWALIM_HGS,2012-02-04,Sanaag,Ceerigaabo,Siigo-Dhere 2,,,,9.5647,47.2972,,Yes,,,,,,,,1975-07-29
Dug Well,SWALIM_WSIS,2008-07-03,Bari,Bandar Beyla,Caris,Bander Bayle,,,9.5935,50.7989,Yes,Yes,,,,,,,,
Dug Well,SWALIM_WSIS,2008-05-28,Sanaag,Ceerigaabo,Galcade Dug Well,Madar Noge,,,10.7954,47.3063,Yes,Yes,,,,,,,,
Borehole,Puntland_PWDA,2019-11-13,Bari,Bossaso,Ceeldahir,Ceeldaahir,,10-07-86,10.6401,49.05,Yes,Yes,,Communal,,0.026,,,,
Dug Well,SWALIM_HGS,2012-01-21,Nugaal,Eyl,Bedey/EYW028,,,,7.96303,49.84393,,Yes,,,,,,,,2030-04-29
Dug Well,SWALIM_WSIS,2008-08-01,Nugaal,Garoowe,Rabable 1,Garowe,,,8.2819,48.2923,Yes,Yes,,,,,,,,
Dug Well,SWALIM_WSIS,2008-05-18,Awdal,Borama,Xarirad Dug Well2,Xariirad,,,10.3237,42.8397,,,,,,,,,,
Borehole,Puntland_PSAWEN,2014-01-02,Bari,Bossaso,SEPCO,Biyo kulule,SEPCO,01-06-13,11.2612,49.1945,,No,,Private,,,,,,
Borehole,Puntland_PSAWEN,2014-01-16,Bari,Bossaso,Somali police academy,Armo,UNDP - United Nations Development Programme,01-06-05,10.5866,49.0497,Yes,Yes,,Public,,,,,Pump and pipes,2011-07-03
Dug Well,SWALIM_WSIS,2008-06-05,Sanaag,Ceerigaabo,Rag Cadeeya,Bixin,,,10.3154,47.3653,Yes,Yes,,,,,,,,
Dug Well,SWALIM_WSIS,2008-08-03,Nugaal,Garoowe,Qabaal,Sinujiif,,,8.3932,49.1012,Yes,Yes,,,,,,,,
Borehole,Puntland_PSAWEN,2014-01-16,Bari,Bossaso,Juurile 2,Juurile,Aquaterra,01-06-86,10.3962,49.0666,Yes,Yes,,Public,,0.1,,,,
Borehole,Puntland_PWDA,2019-11-14,Bari,Bossaso,Carmo2,Carmo,Horseed Water company,14-07-12,10.5488,49.0701,Yes,Yes,,Private-Public-Partnership,,0.026,,,Solar panels And Fencing,2017-09-10
Borehole,Puntland_PSAWEN,2014-01-16,Bari,Bossaso,Armo Horseed BH2,Armo,Horseed Water company,01-01-13,10.5489,49.0703,Yes,No,,Public-Private,,,,,,
Dug Well,SWALIM_WSIS,2008-08-03,Nugaal,Garoowe,Hotel Nugal,,,,8.4053,48.4821,Yes,Yes,,,,,,,,
Dug Well,SWALIM_WSIS,2008-05-29,Awdal,Baki,Abokor Cadaawe 1,Baki,GTZ - German Agency for Technical Assistance,' 22/01/1997,10.0315,43.3583,Yes,Yes,,,,,,,,
Borehole,Puntland_PWDA,2019-11-14,Bari,Bossaso,Carmo3,Carmo,Horseed Water company,20-05-13,10.5532,49.0704,Yes,Yes,,Private-Public-Partnership,,0.026,,,,2016-08-10
Dug Well,SWALIM_WSIS,2009-11-10,Middle Juba,Buaale,Kafiage,,,,1.02,42.58,Yes,Yes,,,,,,,,2005-02-01
Borehole,YME_GSA,2014-07-16,Gedo,Baardheere,Daaralsaam,Daaralsaam,,,1.9536,41.0746,,,,,,,,,,
Borehole,Puntland_PSAWEN,2014-01-16,Bari,Bossaso,Armo Horseed BH1,Armo,Horseed Water company,01-03-13,10.5533,49.0705,Yes,Yes,,Public-Private,,0.1,,,,
Borehole,Puntland_PWDA,2019-11-14,Bari,Bossaso,Carmo4,Carmo,Horseed Water company,11-07-19,10.5711,49.0842,Yes,Yes,,Private-Public-Partnership,,,,,,
Dug Well,SWALIM_WSIS,2008-07-07,Nugaal,Garoowe,kuudud,Jibagale,,,8.5402,48.7084,Yes,Yes,,,,,,,,
Borehole,Puntland_PWDA,2019-11-16,Bari,Bossaso,Xaaji Warsame,Juurile,Community,14-08-15,10.4162,49.0904,Yes,Yes,,Communal,12-08-15,,,,,
Borehole,Puntland_PSAWEN,2014-01-06,Bari,Bossaso,Khadijo,Raf iyo raaxo,Yasin Shanle,01-06-06,11.2619,49.1894,Yes,No,,Community,,,,,,
Dug Well,SWALIM_WSIS,2008-05-19,Awdal,Borama,Xaliimaale 6,Xaliimaale Town,,,10.2399,43.1731,Yes,Yes,,,,,,,,
Dam,SWALIM_WSIS,2008-06-15,Woqooyi Galbeed,Gebiley,Boodhley Dam 1,Boodhley Town,,,9.6019,43.545,No,Yes,,,,,,,,
Borehole,Puntland_PSAWEN,2014-01-04,Bari,Bossaso,Xareed,Balade,Cabdi risaq xareed,01-06-09,11.2351,49.1892,Yes,Yes,,Private,,0.26,,,,
Borehole,Puntland_PWDA,2019-11-16,Bari,Bossaso,Alishanle,Juurile,Community,10-03-15,10.4177,49.0948,Yes,Yes,,Communal,13-07-18,0.026,,,"Elevated Tank, room, generator 50",2018-09-13
Borehole,Puntland_PSAWEN,2014-01-09,Bari,Bossaso,Airport BH3,Bosaso airport,Puntland State Government ,01-06-05,11.2787,49.1478,Yes,Yes,,Public,,,,,,
Borehole,Puntland_PSAWEN,2014-01-09,Bari,Bossaso,Airport BH2,Airport,Government,01-06-05,11.2789,49.1484,Yes,Yes,,Public,,,,,,
Borehole,Puntland_PSAWEN,2014-01-09,Bari,Bossaso,Airport BH1,Bosasso airport,Puntland State Government ,01-06-05,11.2789,49.1491,Yes,No,,Public,,,,,,
Dug Well,SWALIM_WSIS,2009-12-10,Middle Juba,Buaale,Shanaani,,,,0.836,42.609,Yes,Yes,,,,,,,,
Borehole,SWALIM_GSA,2017-04-13,Bay,Baydhaba,Boonkaay BH,Behanooy,UNICEF - United Nations Children's Fund,01-01-09,3.1445,43.6505,Yes,No,,Community,,,,,,
Borehole,Somaliland_MoWRD,2019-11-06,Sool,Caynabo,Caynabo BH,Caynabo,Chinese Government,06-11-77,8.9538,46.399,Yes,Yes,,Private/Individual,,,,,Solar installation,2019-10-06
Dug Well,SWALIM_WSIS,2008-07-28,Mudug,Jariban,Ilo Kulub,Kulub,,,7.0209,49.3751,Yes,Yes,,,,,,,,
Dug Well,SWALIM_HGS,2011-12-12,Nugaal,Garoowe,Rabbaable,,,,8.282,48.2924,,Yes,,,,,,,,1975-09-17
Dug Well,SWALIM_WSIS,2008-08-01,Nugaal,Garoowe,Rabable 2,Garowe,,,8.2807,48.298,Yes,Yes,,,,,,,,
Dug Well,SWALIM_WSIS,2008-08-01,Nugaal,Garoowe,Rabable 3,Garowe,,,8.2854,48.3021,Yes,Yes,,,,,,,,
Dug Well,SWALIM_WSIS,2008-08-01,Nugaal,Garoowe,Rabable 5,Garowe,,,8.291,48.3096,Yes,Yes,,,,,,,,
Dug Well,SWALIM_WSIS,2008-07-19,Nugaal,Garoowe,Galmair,Garowe,,,8.3335,48.388,Yes,Yes,,,,,,,,
Dug Well,SWALIM_WSIS,2008-07-19,Nugaal,Garoowe,Lacdheere,Garowe,,,8.3594,48.4095,Yes,Yes,,,,,,,,
Dug Well,SWALIM_WSIS,2008-07-10,Nugaal,Garoowe,Xargodhere,,,,8.5733,48.4373,Yes,Yes,,,,,,,,
Dug Well,SWALIM_HGS,2011-12-11,Nugaal,Garoowe,Waberi 1,Bilan Village,,,8.3954,48.4871,,Yes,,,,,,,,2006-05-16
Borehole,Puntland_PWDA,2019-11-04,Bari,Bossaso,Abdiladif,Bossaso,Abdiladif1,04-11-05,11.241,49.1827,Yes,Yes,,Private/Individual,,,,,,
Borehole,Puntland_PSAWEN,2014-01-07,Bari,Bossaso,Masjid Muminin,Balade,Cumar Geesdiir,01-06-11,11.257,49.1839,Yes,Yes,,Community,,,,,,
Borehole,Puntland_PSAWEN,2014-01-05,Bari,Bossaso,Gaafuun Sabir,Balade,Sabir company,01-06-10,11.2405,49.1873,Yes,Yes,,Private,,,,,,
Borehole,Puntland_PSAWEN,2014-01-06,Bari,Bossaso,Al Sabaax,Biyo kulule,Al Sabaax,01-06-12,11.2623,49.1877,Yes,Yes,,Private,,,,,,
